station_id,station_name,description,lat,lon
Ternes,Guersant - Gouvion-Saint-Cyr,Ternes,48.88287775,2.287667371
Belleville,Ramponeau - Belleville,Belleville,48.87103114,2.379056852
Epinettes,Porte de Saint-Ouen - Bessières,Epinettes,48.89792241,2.32851451
Auteuil,Saint-Cloud - Hippodrome,Auteuil,48.85834094,2.25815177
Champs-Elysées,Marceau - Chaillot,Champs-Elysées,48.86883395,2.298996784
Epinettes,Porte Pouchet-Bessières,Epinettes,48.8978765,2.3230632
Saint-Vincent-de-Paul,Gare du Nord - Hôpital Lariboisière,Saint-Vincent-de-Paul,48.881949,2.352339
Saint-Ambroise,Saint-Ambroise - Parmentier,Saint-Ambroise,48.86214784,2.377234809
Roquette,Roquette - Thiéré,Roquette,48.85507931,2.373368632
Auteuil,Exelmans - Versailles,Auteuil,48.84097491,2.264390253
Grandes-Carrières,Championnet - Vauvenargues,Grandes-Carrières,48.89401875,2.331987284
Saint-Thomas-d'Aquin,Raspail - Chomel,Saint-Thomas-d'Aquin,48.85223316,2.32665807
Charonne,Louis Lumière - Porte de Bagnolet,Charonne,48.86431136,2.410521023
Pont-de-Flandre,Cité de la Musique,Pont-de-Flandre,48.88879656,2.392581193
Saint-Ambroise,Parmentier - République,Saint-Ambroise,48.8644954,2.3750124
Combat,Marché Secrétan,Combat,48.88125496,2.373463288
Quinze-Vingts,Bastille - Biscornet,Quinze-Vingts,48.85135578,2.369220033
Faubourg-du-Roule,Lamennais - Washington,Faubourg-du-Roule,48.8735299,2.303444892
Plaine de Monceaux,Place du Maréchal Juin - Péreire,Plaine de Monceaux,48.885263,2.298286
Porte-Saint-Denis,Chabrol - d'Hauteville,Porte-Saint-Denis,48.87701839,2.351317964
La Chapelle,Ney - Charles Hermite,La Chapelle,48.89874804,2.364575453
Place-Vendôme,Danielle Casanova - Place Vendôme,Place-Vendôme,48.8682665,2.330483906
Parc-de-Montsouris,Dareau - Broussais,Parc-de-Montsouris,48.8307758,2.3361804
Charonne,Commandant l'Herminier - Gallieni,Charonne,48.84704055,2.416045368
Epinettes,Guy Môquet - Saint-Ouen,Epinettes,48.89277772,2.327033579
Maison-Blanche,Mazagran - Pierre de Coubertin,Maison-Blanche,48.81621864,2.344226874
Notre-Dame-des-Champs,Assas - Luxembourg,Notre-Dame-des-Champs,48.84373447,2.333428382
Maison-Blanche,Italie - Jardin Joan Miro,Maison-Blanche,48.81990914,2.359294854
Rochechouart,Gérando - Rochechouart,Rochechouart,48.88294341,2.346484624
Saint-Merri,Place Edmond Michelet,Saint-Merri,48.86013489,2.350063697
Picpus,Saint-Mandé - Fabre d'Eglantine,Picpus,48.8453579,2.3965022
Grenelle,Croix Nivert - Square Saint-Lambert,Grenelle,48.84305152,2.295200452
Chaussée-d'Antin,Victoire - Laffitte,Chaussée-d'Antin,48.87514373,2.338118505
Halles,Jean-Jacques Rousseau - Deux Ecus,Halles,48.86297806,2.341463529
Gare,Choisy - Malmaisons,Gare,48.8219197,2.363346883
Halles,Coquillière - Louvre,Halles,48.86379591,2.342573628
Plaine de Monceaux,Jouffroy d'Abbans - Malesherbes,Plaine de Monceaux,48.8850134,2.3070717
Ternes,Grande Armée - Brunel,Ternes,48.876116,2.288124
Faubourg-du-Roule,Place Georges Guillaumin,Faubourg-du-Roule,48.8747502,2.301771435
Gros-Caillou,Champ de Mars - Cler,Gros-Caillou,48.85669155,2.306646779
Combat,Carducci - Place Hannah Arendt,Combat,48.87743668,2.386074364
Hôpital-Saint-Louis,Buisson Saint-Louis - Saint-Maur,Hôpital-Saint-Louis,48.87174685,2.372252833
Javel,Place Robert Guillemard,Javel,48.83619173,2.281126716
Saint-Germain-l'Auxerrois,Pont-Neuf - Quai du Louvre,Saint-Germain-l'Auxerrois,48.8582959,2.342371456
Petit-Montrouge,Auguste Cain - Jean Moulin,Petit-Montrouge,48.82577029,2.321041524
Porte-Saint-Martin,Marseille - Beaurepaire,Porte-Saint-Martin,48.87162431,2.363926508
Quinze-Vingts,Charenton - Diderot,Quinze-Vingts,48.84617146,2.379306816
Picpus,Montgallet - Charenton,Picpus,48.84264778,2.386164928
Gare,Jean Colly - Tolbiac,Gare,48.82781729,2.370549068
Invalides,Assemblée Nationale,Invalides,48.86141101,2.320121419
Muette,Ranelagh - Mozart,Muette,48.85545335,2.270191535
Batignolles,Batignolles - Place de Clichy,Batignolles,48.88347454,2.326493114
Saint-Lambert,Place Adolphe Cherioux - Vaugirard,Saint-Lambert,48.83959443,2.301065773
Muette,François Ponsard - La Muette,Muette,48.8583666,2.2744515
Europe,Naples - Rome,Europe,48.8799607,2.321358696
Arsenal,Neuve Saint-Pierre - Beautreillis,Arsenal,48.85355351,2.363912277
Plaine de Monceaux,Pereire - Place de Wagram,Plaine de Monceaux,48.88707061,2.304111125
Saint-Gervais,Hôtel de Ville - Pont-Marie,Saint-Gervais,48.85389965,2.356947251
Batignolles,Brochant - Square des Batignolles,Batignolles,48.88818699,2.316861143
Amérique,Manin - Crimée,Amérique,48.88312177,2.38636706
Mail,Jeûneurs - Mulhouse,Mail,48.868997,2.346925
Saint-Fargeau,Le Vau - Maurice Bertaux,Saint-Fargeau,48.86803439,2.411030612
Goutte-d'Or,Jessaint - Marx Dormoy,Goutte-d'Or,48.88484543,2.358930409
Combat,Botzaris - Crimée,Combat,48.87959699,2.388791334
Belleville,Belleville - Couronnes,Belleville,48.86883108,2.380986214
Ternes,Place Saint-Ferdinand,Ternes,48.8781553,2.288518048
Auteuil,Place de Barcelone - Mirabeau,Auteuil,48.84762303,2.273566425
Auteuil,Place de la Porte de Passy,Auteuil,48.8573411,2.264416554
Porte-Saint-Denis,Square Alban Satragne,Porte-Saint-Denis,48.87534055,2.355884761
Père-Lachaise,Charonne - Pierre Bayle,Père-Lachaise,48.85844505,2.390398122
Europe,Monceau - Malesherbes,Europe,48.8795079,2.3145456
Epinettes,Bessières - Porte de Clichy,Epinettes,48.89611762,2.31790904
Halles,Halles - Bourdonnais,Halles,48.86044899,2.346016243
Rochechouart,Dunkerque - Trudaine,Rochechouart,48.88215167,2.346325368
Saint-Lambert,Abbé Groult - Convention,Saint-Lambert,48.83596928,2.30206404
Champs-Elysées,Champs-Elysees - Bassano,Champs-Elysées,48.87181181,2.300238982
Rochechouart,Condorcet - Turgot,Rochechouart,48.87985156,2.345232368
Necker,Sèvres - Lecourbe,Necker,48.8447677,2.3110086
Halles,Grande Truanderie - Saint-Denis,Halles,48.8626302,2.3498075
Muette,Mairie du 16ème,Muette,48.86393685,2.276595309
Odéon,Herschel - Observatoire,Odéon,48.84342376,2.337664515
Epinettes,St-Ouen - Lamarck,Epinettes,48.89108304,2.326735695
Clignancourt,Marcadet - Ramey,Clignancourt,48.890875,2.3449019
Charonne,Alexandre Dumas - Place de la Réunion,Charonne,48.85533711,2.399770369
Saint-Ambroise,Saint-Maur - République,Saint-Ambroise,48.86418586,2.378317416
Picpus,Général Michel Bizot - Claude Decaen,Picpus,48.83481263,2.400927788
Salpêtrière,Le Brun - Gobelins,Salpêtrière,48.83509279,2.353468135
Saint-Germain-des-Prés,Beaux-Arts - Bonaparte,Saint-Germain-des-Prés,48.85645199,2.334851883
Saint-Thomas-d'Aquin,Raspail - Varenne,Saint-Thomas-d'Aquin,48.85314782,2.32639052
Folie-Méricourt,Richard Lenoir - Republique,Folie-Méricourt,48.8667175,2.3692541
Pont-de-Flandre,Grands Moulins de Pantin,Pont-de-Flandre,48.8973837,2.395998538
Grandes-Carrières,Etienne Jodelle - Saint Ouen,Grandes-Carrières,48.88794016,2.32612442
Goutte-d'Or,Jean-François Lépine - Stephenson,Goutte-d'Or,48.88611467,2.356855628
Grenelle,Lakanal - Commerce,Grenelle,48.84442463,2.294059172
Chaussée-d'Antin,Mathurins - Auber,Chaussée-d'Antin,48.87298884,2.329498421
Père-Lachaise,Villiers de l'Isle Adam - Pyrénées,Père-Lachaise,48.867362,2.396222
Sainte-Marguerite,Montreuil - Gonnet,Sainte-Marguerite,48.85050056,2.389085629
Pont-de-Flandre,Porte de la Villette,Pont-de-Flandre,48.89835197,2.386150137
Bel-Air,Porte Dorée,Bel-Air,48.8354337,2.4077132
Porte-Dauphine,Université Paris Dauphine,Porte-Dauphine,48.87070784,2.27486562
Notre-Dame-des-Champs,Assas - Vaugirard,Notre-Dame-des-Champs,48.84827411,2.329241373
Villette,Aubervilliers - Curial,Villette,48.89088305,2.368857935
Montparnasse,Méchain - Faubourg Saint-Jacques,Montparnasse,48.83586772,2.337980342
Halles,Lavandieres Sainte Opportune - Rivoli,Halles,48.8592797,2.346621752
Champs-Elysées,Petit Palais,Champs-Elysées,48.8667692,2.3157655
Picpus,Diderot - Reuilly,Picpus,48.84720846,2.386127338
Saint-Lambert,Palais des Sports,Saint-Lambert,48.83346852,2.285872065
Gros-Caillou,Surcouf - Université,Gros-Caillou,48.86127302,2.309453551
Montparnasse,Saint-Jacques - Tombe Issoire,Montparnasse,48.83320633,2.336910814
Notre-Dame-des-Champs,Blaise-Desgoffe - Vaugirard,Notre-Dame-des-Champs,48.84612888,2.324267216
Champs-Elysées,Georges V - François 1er,Champs-Elysées,48.87042247,2.301069796
Faubourg-Montmartre,Lamartine - Faubourg Montmartre,Faubourg-Montmartre,48.87661398,2.33976569
Bercy,François Truffaut - Saint Emilion,Bercy,48.83372354,2.386601903
Gare,Stade Georges Carpentier,Gare,48.82048244,2.366832197
Ternes,Pierre Demours - Laugier,Ternes,48.8813072,2.294846
Bercy,Bercy - Villot,Bercy,48.84179501,2.376785018
Ternes,Carnot - Général Lanrezac,Ternes,48.87544387,2.293824294
Grandes-Carrières,Damrémont - Ordener,Grandes-Carrières,48.89340039,2.336266524
Notre-Dame,Arcole - Notre-Dame,Notre-Dame,48.85388354,2.349379733
Notre-Dame,Marché aux fleurs,Notre-Dame,48.85525812,2.347375453
Jardin-des-Plantes,Buffon - Jardin des Plantes,Jardin-des-Plantes,48.84266847,2.361858711
Porte-Dauphine,Crevaux - Bugeaud,Porte-Dauphine,48.87080943,2.281149008
Auteuil,Murat - Porte de Saint-Cloud,Auteuil,48.83750863,2.257765196
Val-de-Grâce,Saint-Michel - Luxembourg,Val-de-Grâce,48.845,2.339787
Saint-Fargeau,Frères Flavien - Porte des Lilas,Saint-Fargeau,48.87809928,2.411046299
Sainte-Avoie,Temple - Haudriettes,Sainte-Avoie,48.86163688,2.356696021
Enfants-Rouges,Fille du Calvaire - Turenne,Enfants-Rouges,48.86210505,2.364960015
Auteuil,Porte de Saint Cloud - Parc des Princes,Auteuil,48.83866276,2.252516448
Vivienne,Filles Saint-Thomas - Place de la Bourse,Vivienne,48.86889989,2.339754385
Vivienne,Mairie du 2ème,Vivienne,48.86721904,2.340462544
Picpus,Stade Pershing,Picpus,48.82906343,2.459069237
Picpus,Fabre d'Eglantine - Place de la Nation,Picpus,48.8471116,2.3956204
Grandes-Carrières,Arthur Ranc - Hôpital Bichat,Grandes-Carrières,48.89787125,2.333521843
Combat,Simon Bolivar - Henri Turot,Combat,48.876887,2.374454
Sainte-Marguerite,Léon Frot - Charonne,Sainte-Marguerite,48.8549638,2.387217085
Saint-Fargeau,Gambetta - Tourelles,Saint-Fargeau,48.8753379,2.405992113
Père-Lachaise,Pyrénées - Charles Renouvier,Père-Lachaise,48.86095933,2.400421852
Saint-Lambert,Porte de la Plaine,Saint-Lambert,48.8280517,2.292427719
Odéon,Quatre Vents - Carrefour de l'Odéon,Odéon,48.85175137,2.338161695
Muette,Passy - Place du Costa Rica,Muette,48.8584893,2.2839655
Chaillot,Paul Valery - Victor Hugo,Chaillot,48.87137406,2.288712859
Gare,Ivry - Baudricourt,Gare,48.824696,2.363106074
Plaine de Monceaux,De Toqueville - Terrasse,Plaine de Monceaux,48.882428,2.314002
Parc-de-Montsouris,Liard - Amiral Mouchez,Parc-de-Montsouris,48.8214169,2.342167
Muette,Octave Feuillet - Albéric Magnard,Muette,48.86106903,2.273028307
Quinze-Vingts,Gare de Lyon - Place Louis Armand,Quinze-Vingts,48.84551509,2.372649845
Amérique,Place de Rhin et Danube,Amérique,48.88192766,2.392586768
Faubourg-du-Roule,Berri - Haussmann,Faubourg-du-Roule,48.87474605,2.308295332
Porte-Dauphine,Route de la Muette - Porte de Neuilly,Porte-Dauphine,48.8798926,2.2587671
Croulebarbe,Arago - Glacière,Croulebarbe,48.83486055,2.344577052
Folie-Méricourt,Parmentier - Abel rabaud,Folie-Méricourt,48.86921274,2.371688821
Petit-Montrouge,Place de la Porte de Châtillon,Petit-Montrouge,48.8242469,2.3186306
Ternes,Bayen - Pereire,Ternes,48.88180441,2.292108871
Porte-Dauphine,Flandrin - Henri Martin,Porte-Dauphine,48.8643275,2.2724174
Saint-Thomas-d'Aquin,Quai Voltaire,Saint-Thomas-d'Aquin,48.85894299,2.331418205
Saint-Fargeau,Pelleport - Belgrand,Saint-Fargeau,48.86500082,2.403980836
Grenelle,Théâtre - Lourmel,Grenelle,48.84820704,2.289865874
Saint-Fargeau,Borrégo - Gambetta,Saint-Fargeau,48.87330497,2.401414588
Combat,Manin - Simon Bolivar,Combat,48.87649965,2.379407363
Mail,Uzès - Montmartre,Mail,48.87079098,2.343101017
Goutte-d'Or,Léon - Doudeauville,Goutte-d'Or,48.88832422,2.353573373
Plaisance,Gergovie - Vercingétorix,Plaisance,48.83453414,2.313154547
Bel-Air,Pyramide - Parc Floral,Bel-Air,48.837442,2.440452
Porte-Saint-Martin,Vinaigriers - Magenta,Porte-Saint-Martin,48.8731167,2.3593052
Quinze-Vingts,Charenton - Prague,Quinze-Vingts,48.84817513,2.376358449
Saint-Fargeau,Porte de Bagnolet,Saint-Fargeau,48.86470714,2.408344637
Charonne,Louis Lumière,Charonne,48.86216198,2.411125782
Plaine de Monceaux,Phalsbourg - Villiers,Plaine de Monceaux,48.88242308,2.309045345
Notre-Dame,Quai de Béthune - Pont de la Tournelle,Notre-Dame,48.85097433,2.356307209
Saint-Lambert,Olivier de Serres - Leriche,Saint-Lambert,48.83460222,2.295748293
Plaisance,Didot - Mariniers,Plaisance,48.82650544,2.313136198
Villette,Lally-Tollendal - Armand Carrel,Villette,48.88270066,2.374717556
Clignancourt,Custine - Ramey,Clignancourt,48.8887359,2.346952669
Bel-Air,Champs de Manoeuvre - Cartoucherie,Bel-Air,48.83407122,2.445613297
Notre-Dame-des-Champs,Saint-Placide - Cherche Midi,Notre-Dame-des-Champs,48.84905359,2.325317971
Plaine de Monceaux,Jouffroy d'Abbans - Villiers,Plaine de Monceaux,48.88421555,2.305653356
Val-de-Grâce,Le Goff - Gay-Lussac,Val-de-Grâce,48.8461024,2.341220789
Roquette,Roquette - Auguste Laurent,Roquette,48.85800191,2.381797703
Charonne,Buzenval - Vignoles,Charonne,48.85385817,2.400004081
Parc-de-Montsouris,Tombe Issoire - René Coty,Parc-de-Montsouris,48.83051288,2.334361374
Auteuil,George Sand - Jean de La Fontaine,Auteuil,48.84986919,2.268257388
Saint-Ambroise,Ménilmontant - Oberkampf,Saint-Ambroise,48.86661766,2.38301344
Necker,Pasteur - Cotentin,Necker,48.8389284,2.316356
Champs-Elysées,Galilée - Vernet,Champs-Elysées,48.87171588,2.298544496
Plaisance,Jacquier - Didot,Plaisance,48.82953336,2.318179272
Notre-Dame-des-Champs,Saint-Sulpice,Notre-Dame-des-Champs,48.85165383,2.330807783
Val-de-Grâce,Gay Lussac - Saint-Jacques,Val-de-Grâce,48.84473026,2.341923945
Europe,Rocher - Laborde,Europe,48.87590241,2.322616316
Plaisance,Porte de Vanves,Plaisance,48.82801285,2.305687889
Plaisance,Marc Sangnier - Porte de Vanves,Plaisance,48.82521868,2.310711667
Ternes,Place Madeleine Daniélou,Ternes,48.883498,2.282015
Ternes,Porte Maillot - Pereire,Ternes,48.877775,2.284444
Madeleine,Miromesnil - La Boétie,Madeleine,48.87372241,2.315848097
Necker,Volontaire - Lecourbe,Necker,48.84351379,2.306552231
Père-Lachaise,Boyer - Ménilmontant,Père-Lachaise,48.86889516,2.391982415
Folie-Méricourt,Jules Ferry - Faubourg du Temple Paris,Folie-Méricourt,48.868397,2.3678933
La Chapelle,Departement - Pajol,La Chapelle,48.88667485,2.361361161
Porte-Dauphine,Jardin d'Acclimatation,Porte-Dauphine,48.87877224,2.270772234
Saint-Victor,Jussieu - Fossés Saint-Bernard,Saint-Victor,48.84718551,2.35348586
Muette,Ceinture du Lac Inferieure - Saint-Cloud,Muette,48.86218071,2.261787169
Salpêtrière,Gare d'Austerlitz - Quai Saint-Bernard,Salpêtrière,48.84369031,2.365716398
Grandes-Carrières,Pierre Ginier - Clichy,Grandes-Carrières,48.8867667,2.326228
Quinze-Vingts,Charenton - Place du Col Bourgoin,Quinze-Vingts,48.84486732,2.382578935
Saint-Lambert,Vasco de Gama,Saint-Lambert,48.83671783,2.283664086
Clignancourt,Porte de Clignancourt,Clignancourt,48.897488,2.343996
Notre-Dame-des-Champs,Place Alphonse Deville,Notre-Dame-des-Champs,48.85018826,2.327596173
Grandes-Carrières,Clichy - Lechapelais,Grandes-Carrières,48.89939207,2.331942022
Javel,Balard - Montagne de la Fage,Javel,48.8385074,2.278287113
Auteuil,Maison de Radio - France,Auteuil,48.85132886,2.27778554
Gare,Parc de Choisy,Gare,48.82815625,2.358513533
Salpêtrière,Hôpital Pitié Salpêtrière,Salpêtrière,48.8377016,2.3604946
Grandes-Carrières,Ney - Porte de Montmartre,Grandes-Carrières,48.897918,2.3364872
Palais-Royal,Thérèse - Opéra,Palais-Royal,48.86648351,2.334433421
Maison-Blanche,Vistule - Choisy,Maison-Blanche,48.82365544,2.361572385
Bel-Air,Bois de Vincennes - Porte Jaune,Bel-Air,48.83875125,2.460548915
Europe,Clapeyron - Moscou,Europe,48.8807882,2.324815057
Amérique,Hôpital Robert Debré,Amérique,48.88005222,2.400865035
Javel,Parc Suzanne Lenglen,Javel,48.83325069,2.276540324
Grenelle,Place Fernand Forest,Grenelle,48.84926914,2.281863168
Batignolles,Porte d'Asnières,Batignolles,48.89035818,2.303628623
Saint-Vincent-de-Paul,Gare du Nord - Faubourg Saint-Denis,Saint-Vincent-de-Paul,48.87961277,2.356840298
Roquette,Bréguet - Sabin,Roquette,48.85693168,2.370674946
Epinettes,Paul Bodin - Clichy,Epinettes,48.89239615,2.317142598
Père-Lachaise,Sorbier - Ménilmontant,Père-Lachaise,48.8685424,2.389772125
Gare,Halle Freyssinet - Parvis Alan Turing,Gare,48.83284681,2.371142171
Saint-Merri,Archives - Rivoli,Saint-Merri,48.85734671,2.353976704
Saint-Merri,Blancs-Manteaux - Archives,Saint-Merri,48.85941801,2.355947122
Clignancourt,Poulet - Barbès,Clignancourt,48.887148,2.349064
Pont-de-Flandre,Cesaria Evora - Rosa Parks,Pont-de-Flandre,48.89717673,2.374517396
Palais-Royal,Ventadour - Opéra,Palais-Royal,48.86681065,2.334388448
Porte-Dauphine,Suresnes - Muette à Neuilly,Porte-Dauphine,48.868716,2.266586
Mail,Place des Victoires,Mail,48.8660354,2.3420333
Villette,Mathis - Flandre,Villette,48.89064299,2.376255468
Faubourg-du-Roule,Balzac - Champs Elysées,Faubourg-du-Roule,48.87269964,2.300195396
Gare,Olympiades,Gare,48.82676467,2.365086079
Auteuil,Jean de la Fontaine - Boulainvilliers,Auteuil,48.85264791,2.275866419
Clignancourt,Championnet,Clignancourt,48.8953643,2.3498166
Notre-Dame-des-Champs,Regard - Rennes,Notre-Dame-des-Champs,48.8473854,2.326855548
Sainte-Marguerite,Philippe-Auguste,Sainte-Marguerite,48.85185349,2.393294536
Jardin-des-Plantes,Geoffroy-Saint-Hilaire - Saint-Marcel,Jardin-des-Plantes,48.83907826,2.356877341
Parc-de-Montsouris,Jourdan - Stade Charléty,Parc-de-Montsouris,48.81942833,2.343335375
Montparnasse,Boulard - Daguerre,Montparnasse,48.83442368,2.329458967
Saint-Victor,Boulangers - Cardinal Lemoine,Saint-Victor,48.8462904,2.3521495
Saint-Germain-des-Prés,Institut de France,Saint-Germain-des-Prés,48.85761568,2.335831353
Epinettes,Legendre - Clichy,Epinettes,48.88896162,2.322528975
Combat,Square Simon Bolivar,Combat,48.87508989,2.382630408
Croulebarbe,Port-Royal - Hôpital du Val-de-Grâce,Croulebarbe,48.83766827,2.344813835
Combat,Botzaris - Parc des Buttes Chaumont,Combat,48.877951,2.381464
Necker,Joseph Liouville - Croix Nivert,Necker,48.84483547,2.297508493
Sorbonne,Cujas - Saint-Michel,Sorbonne,48.84819135,2.341831655
Amérique,Hautpoul - Jean Jaurès,Amérique,48.88639368,2.386541454
Sainte-Marguerite,Jean Macé - Faidherbe,Sainte-Marguerite,48.85337548,2.382862084
Grandes-Carrières,Francoeur - Marcadet,Grandes-Carrières,48.89104123,2.340014585
Hôpital-Saint-Louis,Gare de l'Est - Verdun,Hôpital-Saint-Louis,48.87615605,2.360914908
Père-Lachaise,Ménilmontant - Pelleport,Père-Lachaise,48.87068263,2.398959602
Ternes,Mac-Mahon - Brey,Ternes,48.87753208,2.294512536
La Chapelle,Porte d'Aubervilliers,La Chapelle,48.89859662,2.368972264
Chaillot,Bassano -  Iéna,Chaillot,48.86814451,2.296149601
Petit-Montrouge,Romain Rolland,Petit-Montrouge,48.82021523,2.323414423
Grandes-Carrières,Square Raymond Souplex,Grandes-Carrières,48.89183721,2.335426103
Saint-Victor,Poissy - Saint-Germain,Saint-Victor,48.84969649,2.352968529
Monnaie,Pierre Sarrazin - Saint-Michel,Monnaie,48.85090815,2.342130728
Bel-Air,Square Georges Melies,Bel-Air,48.84070239,2.409667745
Combat,Mairie du 19ème,Combat,48.88256264,2.381262481
Charonne,Louis Ganne - Davout,Charonne,48.86338721,2.409725748
Madeleine,Matignon - Faubourg Saint-Honoré,Madeleine,48.87147859,2.313977927
Maison-Blanche,Moulin de la Pointe,Maison-Blanche,48.82092946,2.356317937
Grandes-Carrières,Véron - Lepic,Grandes-Carrières,48.88526123,2.334559858
Gros-Caillou,Rapp - Place du Général Gouraud,Gros-Caillou,48.85810289,2.30040729
Amérique,Pré Saint-Gervais - Lilas,Amérique,48.87787063,2.395907342
Saint-Ambroise,Jacquard - Ternaux,Saint-Ambroise,48.8646605,2.373162
Maison-Blanche,Wurtz - Tolbiac,Maison-Blanche,48.82631196,2.344585955
Gros-Caillou,Ecole Militaire - Place Joffre,Gros-Caillou,48.8520602,2.301799357
Gare,Bruneseau - Quai d'Ivry,Gare,48.82494564,2.388566136
Saint-Lambert,Brancion - Lefebvre,Saint-Lambert,48.82900223,2.301431038
Porte-Dauphine,André Maurois - Joseph et Marie Hackin,Porte-Dauphine,48.8778983,2.2789591
Champs-Elysées,George V - Christophe Colomb,Champs-Elysées,48.8704294,2.3011638
Javel,Lucien Bossoutrot - Général Martial Vallin,Javel,48.83695605,2.274107225
Necker,Place Jacques et Thérèse Tréfouël,Necker,48.8427265,2.312565744
Gare,Place Jeanne d'Arc,Gare,48.829575,2.369126
Chaussée-d'Antin,Taitbout - La Fayette,Chaussée-d'Antin,48.87332989,2.335262597
Saint-Lambert,Dutot - Place Alleray,Saint-Lambert,48.83682609,2.30717011
Salpêtrière,Bruant - Vincent Auriol,Salpêtrière,48.83484845,2.3668265
Auteuil,Molitor - Michel-Ange,Auteuil,48.84518208,2.262112774
Mail,Cléry - Montmartre,Mail,48.867458,2.3445211
Enfants-Rouges,Place de la République - Temple,Enfants-Rouges,48.8672112,2.363546437
Bel-Air,Parc Floral du Bel Air,Bel-Air,48.83991906,2.438380235
Saint-Georges,Victor Massé - Jean-Baptiste Pigalle,Saint-Georges,48.88110437,2.336695567
Clignancourt,Francoeur - Caulaincourt,Clignancourt,48.88999444,2.342529707
Villette,Euryale Dehaynin - Loire,Villette,48.88624892,2.377459109
Saint-Lambert,Dominique Pado - Croix Nivert,Saint-Lambert,48.83656,2.28976
Sorbonne,Saint-Séverin - Saint-Michel,Sorbonne,48.85273131,2.344092764
Gros-Caillou,Bourdonnais - Tour Eiffel,Gros-Caillou,48.8608978,2.295599598
Champs-Elysées,Marceau - Président Wilson,Champs-Elysées,48.8652359,2.3002513
Javel,Colonel Pierre Avia,Javel,48.82968433,2.275342587
Roquette,Froment - Bréguet,Roquette,48.85704145,2.372894703
Odéon,Vaugirard - Monsieur le Prince,Odéon,48.84895144,2.341132946
Gros-Caillou,Octave Gréard - Tour Eiffel,Gros-Caillou,48.85650298,2.293178754
Saint-Georges,Moncey - Blanche,Saint-Georges,48.88006587,2.331081033
Porte-Saint-Martin,Cité Riverin - Château d'Eau,Porte-Saint-Martin,48.87070242,2.358739864
Folie-Méricourt,Richard Lenoir - Jean-Pierre Timbaud,Folie-Méricourt,48.86580428,2.369337075
Batignolles,Legendre - Dulong,Batignolles,48.88532517,2.316423766
Saint-Georges,Saint Georges - d'Aumale,Saint-Georges,48.8777864,2.337429821
Picpus,Montgallet - Reuilly,Picpus,48.844291,2.3896481
Plaisance,Gare Montparnasse - René Mouchotte,Plaisance,48.83920384,2.320883945
Charonne,Réunion - Avron,Charonne,48.85256675,2.403928069
Chaillot,Lauriston - Copernic,Chaillot,48.86926,2.289918
Saint-Vincent-de-Paul,Gare de l'Est - Place du 11 Novembre 1918,Saint-Vincent-de-Paul,48.876327,2.3585464
Combat,Edouard Pailleron - Simon Bolivar,Combat,48.87979886,2.374839261
Auteuil,Eglise d'Auteuil,Auteuil,48.84749842,2.268483871
Plaine de Monceaux,Courcelles - Pierre Demours,Plaine de Monceaux,48.88376973,2.298584663
Sorbonne,Square René Viviani - Montebello,Sorbonne,48.85190489,2.347842157
Saint-Vincent-de-Paul,Gare du Nord - Saint-Vincent de Paul,Saint-Vincent-de-Paul,48.88095574,2.352430515
Europe,Batignolles - Rome,Europe,48.88182337,2.32025899
Bonne-Nouvelle,Greneta - Sebastopol,Bonne-Nouvelle,48.86524233,2.351666987
Mail,Bachaumont - Montmartre,Mail,48.86617395,2.344977558
Croulebarbe,Auguste Blanqui - Glacière,Croulebarbe,48.8311516,2.343822196
Porte-Saint-Denis,Metz - Faubourg Saint-Denis,Porte-Saint-Denis,48.870893,2.353521
Auteuil,Raffet - Montmorency,Auteuil,48.85258671,2.262925246
Saint-Georges,Londres - Place d'Estienne d'Orves,Saint-Georges,48.87669381,2.330536209
Saint-Vincent-de-Paul,Marché Saint-Quentin,Saint-Vincent-de-Paul,48.87735606,2.354511446
Odéon,Marché Saint-Germain,Odéon,48.85165626,2.335500307
Saint-Ambroise,Richard Lenoir - Voltaire,Saint-Ambroise,48.86164274,2.37274915
Charonne,Benoît Frachon - République,Charonne,48.85230729,2.415605485
Auteuil,Porte Molitor,Auteuil,48.84524764,2.256901525
Bel-Air,Place de la Nation - Picpus,Bel-Air,48.84682168,2.400113046
Saint-Georges,Parme - Clichy,Saint-Georges,48.88126642,2.328197093
Faubourg-du-Roule,Arsène Houssaye - Champs-Elysées,Faubourg-du-Roule,48.87340928,2.29779046
Palais-Royal,Rivoli - Musée du Louvre,Palais-Royal,48.86364637,2.334095836
Halles,Place du Lieutenant Henri Karcher,Halles,48.86349087,2.340067104
Halles,Les Halles - Saint-Eustache,Halles,48.86362696,2.342623919
Charonne,Paganini - Davout,Charonne,48.85135,2.412021
Monnaie,Place Saint-André des Arts,Monnaie,48.85288617,2.342654429
Porte-Dauphine,Benjamin Godard - Victor Hugo,Porte-Dauphine,48.865983,2.275725
Grenelle,Bir Hakeim,Grenelle,48.85384405,2.289705348
Bonne-Nouvelle,Caire - Dussoubs,Bonne-Nouvelle,48.86785342,2.349364311
Belleville,Jourdain - Place des Grandes Rigoles,Belleville,48.87403114,2.389594764
Roquette,Chemin Vert - Saint-Maur,Roquette,48.86112461,2.381299026
Grenelle,Place Violet,Grenelle,48.84487894,2.290575653
Val-de-Grâce,Claude Bernard - Arbalète,Val-de-Grâce,48.83976677,2.347510904
Roquette,Ledru-Rollin - Charonne,Roquette,48.85345856,2.377246358
Plaisance,Pierre Larousse - Raymond Losserand,Plaisance,48.83059564,2.311918326
Grandes-Carrières,Lepic - Armée d'Orient,Grandes-Carrières,48.8875364,2.33430773
Champs-Elysées,Marignan - Champs-Elysées,Champs-Elysées,48.86949566,2.306613814
Saint-Georges,Jean-Baptiste Pigalle - La Bruyere,Saint-Georges,48.87939826,2.333709173
Auteuil,Mozart - Jasmin,Auteuil,48.85286125,2.268483571
Grandes-Carrières,Caulaincourt - Place Constantin Pecqueur,Grandes-Carrières,48.88967791,2.338178714
Plaine de Monceaux,Alfred Roll - Berthier,Plaine de Monceaux,48.88780857,2.300095298
Charonne,Eugène Reisz - Davout,Charonne,48.85652582,2.410531338
Vivienne,Favart - Italiens,Vivienne,48.87144635,2.338290106
Plaine de Monceaux,Reims - Porte d'Asnières,Plaine de Monceaux,48.89183445,2.30014466
Folie-Méricourt,Parmentier - Fontaine au Roi,Folie-Méricourt,48.86787671,2.372705979
Sorbonne,Sorbonne - Ecoles,Sorbonne,48.84968657,2.34349966
Champs-Elysées,Place du Canada,Champs-Elysées,48.86534627,2.310193788
Picpus,Lac Daumesnil - Saint-Maurice,Picpus,48.82774556,2.418365479
Picpus,Daumesnil - Picpus,Picpus,48.8374688,2.401765
Arsenal,Beaumarchais - Pas de la Mule,Arsenal,48.85558051,2.368433367
Europe,Londres - Amsterdam,Europe,48.87803446,2.326483541
Hôpital-Saint-Louis,Louis Blanc - Jemmapes,Hôpital-Saint-Louis,48.87933076,2.368448563
Hôpital-Saint-Louis,Quai de Valmy,Hôpital-Saint-Louis,48.88126952,2.368186042
Gare,Ivry - Simone Weil,Gare,48.82328393,2.365909517
Charonne,Jardin de l'Hospice Debrousse,Charonne,48.86145106,2.405686006
Grenelle,Emeriau - Beaugrenelle,Grenelle,48.8479125,2.28430599
La Chapelle,Rond-Point de la Chapelle,La Chapelle,48.89512661,2.359971106
Croulebarbe,Auguste Blanqui - Corvisart,Croulebarbe,48.8300989,2.3502726
Batignolles,Berthier - Porte de Clichy,Batignolles,48.89430232,2.312562796
Maison-Blanche,Place de Rungis,Maison-Blanche,48.82245595,2.347382729
Halles,Saint-Denis - Rivoli,Halles,48.85905934,2.3476943
Europe,Mairie du 8ème,Europe,48.877932,2.318264
Place-Vendôme,Cambon - Rivoli,Place-Vendôme,48.86614339,2.325180065
Invalides,Cité Vaneau,Invalides,48.85422107,2.319614924
Porte-Dauphine,Pergolèse - Marbeau,Porte-Dauphine,48.87356871,2.281512523
Pont-de-Flandre,Emile Reynaud - Porte de la Villette,Pont-de-Flandre,48.90098954,2.388702258
Saint-Gervais,Tiron - Rivoli,Saint-Gervais,48.85569225,2.357905805
Saint-Vincent-de-Paul,Gare du Nord - La Chapelle,Saint-Vincent-de-Paul,48.88417829,2.356105708
Saint-Merri,Saint-Bon - Rivoli,Saint-Merri,48.85799964,2.350217281
Plaisance,Château - Place de Catalogne,Plaisance,48.83681393,2.318669111
Père-Lachaise,Mûriers - Père Lachaise,Père-Lachaise,48.86413051,2.391649821
Charonne,Pyrénées - Cours de Vincennes,Charonne,48.84779678,2.406172156
Salpêtrière,Duméril - Jeanne d'Arc,Salpêtrière,48.83815161,2.35710845
Madeleine,Rome - Provence,Madeleine,48.87423006,2.325570112
Picpus,Porte de Charenton,Picpus,48.83124011,2.398910746
Saint-Victor,Lacépède - Monge,Saint-Victor,48.84389287,2.351966389
Invalides,Las Cases - Bourgogne,Invalides,48.8590911,2.318568528
Gare,Regnault - Patay,Gare,48.82435782,2.377065159
Saint-Georges,Douai - Bruxelles,Saint-Georges,48.88320784,2.330844995
Saint-Germain-l'Auxerrois,Quai de l'Horloge - Pont Neuf,Saint-Germain-l'Auxerrois,48.85705874,2.341798284
Europe,Lisbonne - Monceau,Europe,48.87745568,2.309694221
Faubourg-Montmartre,Rossini - Laffitte,Faubourg-Montmartre,48.87334628,2.337980868
Belleville,Pyrénées - Emmery,Belleville,48.87201028,2.392039597
Grenelle,Desaix - Edgar Faure,Grenelle,48.8528046,2.29307703
Père-Lachaise,Repos - Cimetière du Père Lachaise,Père-Lachaise,48.85935852,2.389613137
Villette,Seine - Flandre,Villette,48.88678574,2.37461932
Combat,Laumière - Petit,Combat,48.88467369,2.380039059
Villette,Flandre - Riquet,Villette,48.88801328,2.373759596
Grenelle,Dupleix - du Guesclin,Grenelle,48.8514791,2.29670953
Sainte-Marguerite,Alexandre Dumas - Voltaire,Sainte-Marguerite,48.85288867,2.389147641
Villette,Quai de la Loire - Jean Jaurès,Villette,48.88339734,2.371074523
Charonne,Charonne - Avron,Charonne,48.85160267,2.398403047
Amérique,Petit - Manin,Amérique,48.88650688,2.39381554
Plaine de Monceaux,Parc Monceau,Plaine de Monceaux,48.88107791,2.309549265
Saint-Fargeau,Haxo - Surmelin,Saint-Fargeau,48.86943708,2.405396575
Chaussée-d'Antin,Provence - Chaussée d'Antin,Chaussée-d'Antin,48.87428448,2.332976512
Goutte-d'Or,Square Léon,Goutte-d'Or,48.88667397,2.353205569
Porte-Saint-Martin,Place Jacques Bonsergent,Porte-Saint-Martin,48.87094822,2.361204922
Halles,Pont Neuf - Rivoli,Halles,48.86008989,2.34405756
Saint-Lambert,Mairie du 15ème,Saint-Lambert,48.8417762,2.2986539
Saint-Vincent-de-Paul,Gare de l'Est - Chateau Landon,Saint-Vincent-de-Paul,48.879305,2.362424
Faubourg-Montmartre,Mairie du 9ème,Faubourg-Montmartre,48.87326714,2.340753448
Gare,Boutroux - Porte de Vitry,Gare,48.822632,2.377738
Amérique,Alexander Fleming - Belvédère,Amérique,48.88179064,2.403059938
Montparnasse,Santé - Arago,Montparnasse,48.83507658,2.341573726
Chaillot,Longchamp - Place d'Iéna,Chaillot,48.86491723,2.292674817
Quinze-Vingts,Gare de Lyon - Van Gogh,Quinze-Vingts,48.84383979,2.370445024
Jardin-des-Plantes,Censier - Santeuil,Jardin-des-Plantes,48.84065892,2.353752404
Charonne,Vitruve - Davout,Charonne,48.86053161,2.409159281
Saint-Merri,Lobau - Hôtel de Ville,Saint-Merri,48.8562118,2.3532536
Petit-Montrouge,Jourdan - Monticelli,Petit-Montrouge,48.822032,2.329095
Necker,Vaugirard - Pasteur,Necker,48.84040869,2.315436713
Pont-de-Flandre,Quai de l'Oise - Aisne,Pont-de-Flandre,48.8906231,2.3833701
Grandes-Carrières,Clichy - Douai,Grandes-Carrières,48.88411832,2.328728735
Bel-Air,Picpus - Louis Braille,Bel-Air,48.83998879,2.400525669
Picpus,Madagascar - Meuniers,Picpus,48.83460464,2.397065051
Porte-Dauphine,Raymond Poincaré - Place Victor Hugo,Porte-Dauphine,48.87030612,2.285074541
Pont-de-Flandre,Square Claude Bernard,Pont-de-Flandre,48.89876016,2.375325747
Sainte-Marguerite,Jules Vallès - Charonne,Sainte-Marguerite,48.85428438,2.384767458
Jardin-des-Plantes,Epée de Bois - Mouffetard,Jardin-des-Plantes,48.84150869,2.350066714
Clignancourt,Place des Abbesses,Clignancourt,48.88454273,2.338686772
Gaillon,Louis le Grand - Italiens,Gaillon,48.87050894,2.334054462
Bel-Air,Cours de Vincennes - Soult,Bel-Air,48.84691876,2.410522029
Amérique,Solitaires - Place des Fêtes,Amérique,48.876601,2.391769
Sainte-Marguerite,Place de la Nation - Taillebourg,Sainte-Marguerite,48.8488408,2.3973043
Muette,Siam - La Pompe,Muette,48.86172033,2.275346569
Saint-Lambert,Dantzig - Lefebvre,Saint-Lambert,48.83013922,2.295934036
Faubourg-du-Roule,Colisée - Champs-Elysées,Faubourg-du-Roule,48.8704754,2.30761908
Bercy,Mairie du 12ème,Bercy,48.84085531,2.387554944
Montparnasse,Cassini - Denfert-Rochereau,Montparnasse,48.83752584,2.336035408
Porte-Saint-Denis,Mazagran - Bonne Nouvelle,Porte-Saint-Denis,48.870278,2.351281
Rochechouart,Tour d'Auvergne - Rodier,Rochechouart,48.879161,2.343698
Hôpital-Saint-Louis,Alexandre Parodi - Quai de Valmy,Hôpital-Saint-Louis,48.87935942,2.366596162
Necker,Vigée-Lebrun - Anselme Payen,Necker,48.83868394,2.311042249
Javel,Henry Farman,Javel,48.8337243,2.271385454
Champs-Elysées,Place de la Reine Astrid,Champs-Elysées,48.86492098,2.302549182
Saint-Lambert,Lecourbe - Jean Maridor,Saint-Lambert,48.83796366,2.287739217
Chaillot,Galilée - Kléber,Chaillot,48.86741187,2.29078138
Porte-Dauphine,Sablons - Georges Mandel,Porte-Dauphine,48.863875,2.28189
Combat,Villette - Belleville,Combat,48.87268773,2.376461327
Auteuil,Théophile Gautier - François Millet,Auteuil,48.85034821,2.273029983
Pont-de-Flandre,Flandre - Alphonse Karr,Pont-de-Flandre,48.89465,2.381868
Hôpital-Saint-Louis,Parmentier - Hôpital Saint-Louis,Hôpital-Saint-Louis,48.87137987,2.369896384
Epinettes,Fragonard - Porte de Clichy,Epinettes,48.89415563,2.314389311
Saint-Lambert,Place Charles Vallin,Saint-Lambert,48.83552381,2.302598655
Saint-Fargeau,Evariste Galois,Saint-Fargeau,48.87308754,2.413338013
Belleville,Parc de Belleville - Julien Lacroix,Belleville,48.8703459,2.3842214
Maison-Blanche,Place Jean Delay,Maison-Blanche,48.823316,2.354336
Rochechouart,Bellefond - Maubeuge,Rochechouart,48.8782554,2.345264219
Picpus,Diderot - Pierre Bourdan,Picpus,48.84764862,2.390258275
Saint-Thomas-d'Aquin,Villersexel - Saint-Germain,Saint-Thomas-d'Aquin,48.858297,2.323793471
Javel,Parc André Citroën,Javel,48.84063994,2.278061807
Invalides,Quai Anatole France - Musée d'Orsay,Invalides,48.86121174,2.324246094
Muette,Paul Doumer - La Tour,Muette,48.86011611,2.280840482
Hôpital-Saint-Louis,Claude Vellefaux - Sambre et Meuse,Hôpital-Saint-Louis,48.875022,2.370478
Maison-Blanche,Italie - Tolbiac,Maison-Blanche,48.82498014,2.357884994
Montparnasse,Gare Montparnasse - Edgar Quinet,Montparnasse,48.84148785,2.323323228
Val-de-Grâce,Jean Calvin - Tournefort,Val-de-Grâce,48.84158857,2.348489575
Faubourg-du-Roule,Hoche - Tilsitt,Faubourg-du-Roule,48.87483646,2.297132313
Maison-Blanche,Glacière - Soeur Catherine Marie,Maison-Blanche,48.82952299,2.343570404
Gros-Caillou,Place Joffre - Frédéric le Play,Gros-Caillou,48.85375449,2.304424234
Porte-Saint-Denis,Paradis - Hauteville,Porte-Saint-Denis,48.87499995,2.35227574
Sorbonne,Ecoles - Carmes,Sorbonne,48.84890445,2.34734863
Europe,Alfred de Vigny - Place du Général Brocard,Europe,48.87836138,2.305254448
Sainte-Avoie,Beaubourg - Michel-le-Comte,Sainte-Avoie,48.86253494,2.354310304
Petit-Montrouge,Bézout - Général Leclerc,Petit-Montrouge,48.82884805,2.328597307
Saint-Gervais,Village Saint-Paul,Saint-Gervais,48.85263987,2.360730171
Notre-Dame-des-Champs,Bréa - Raspail,Notre-Dame-des-Champs,48.84273848,2.329794222
Bel-Air,Château de Vincennes,Bel-Air,48.84423193,2.439209538
Maison-Blanche,Bobillot - Tolbiac,Maison-Blanche,48.82559613,2.350204177
Javel,Félix Faure - Convention,Javel,48.84124934,2.288386601
Grenelle,Suffren - La Motte-Piquet,Grenelle,48.85088123,2.30122
Montparnasse,Port Royal - Hôpital Cochin,Montparnasse,48.83837323,2.340717874
Plaisance,Maine - Jean Zay,Plaisance,48.83792526,2.322542891
Charonne,Reynaldo Hahn - Lagny,Charonne,48.84926604,2.412330329
Notre-Dame-des-Champs,Montparnasse -  Square Ozanam,Notre-Dame-des-Champs,48.84331057,2.326524295
Salpêtrière,Saint-Marcel - Hôpital,Salpêtrière,48.83950442,2.360989417
Saint-Thomas-d'Aquin,Square Boucicaut,Saint-Thomas-d'Aquin,48.85129643,2.32506182
Petit-Montrouge,Le Brix et Mesmin - Jourdan,Petit-Montrouge,48.82234097,2.327861653
Pont-de-Flandre,Cambrai - Benjamin Constant,Pont-de-Flandre,48.89594737,2.381133802
Auteuil,Michel-Ange - Parent de Rosan,Auteuil,48.84057992,2.258411944
Rochechouart,Bellefond - Poissonnière,Rochechouart,48.87759897,2.348463759
Bercy,Gabriel Lamé,Bercy,48.83512128,2.38553457
Javel,Place Balard,Javel,48.83639574,2.278419212
Val-de-Grâce,Saint-Jacques - Val de Grâce,Val-de-Grâce,48.8417514,2.3413893
Ecole-Militaire,Vaneau - Sèvres,Ecole-Militaire,48.84856323,2.320421826
Porte-Saint-Denis,Enghien - Faubourg Poissonnière,Porte-Saint-Denis,48.87242006,2.348395236
Faubourg-Montmartre,Faubourg Montmartre - La Fayette,Faubourg-Montmartre,48.87525455,2.340853661
Sorbonne,Estrapade - Ulm,Sorbonne,48.84512773,2.345456817
Invalides,Mairie du 7ème,Invalides,48.8577967,2.3192664
Sainte-Marguerite,Charonne - Faubourg Saint-Antoine,Sainte-Marguerite,48.85219191,2.374093272
Sainte-Marguerite,Boulets - Voltaire,Sainte-Marguerite,48.85218706,2.389030159
Monnaie,Jacques Callot - Mazarine,Monnaie,48.85528018,2.337574326
Ternes,Place des Ternes,Ternes,48.87843863,2.297727764
Plaisance,Ouest - Château,Plaisance,48.83617286,2.319392144
Picpus,Dugommier,Picpus,48.83881105,2.389657795
Saint-Victor,Jussieu - Guy de la Brosse,Saint-Victor,48.845665,2.355653
Plaisance,Boyer-Barret - Raymond Losserand,Plaisance,48.8332988,2.3173384
Belleville,Piat - Parc de Belleville,Belleville,48.87195627,2.38498139
Necker,Place Falguière,Necker,48.83629974,2.310446464
Saint-Ambroise,Square Saint-Ambroise,Saint-Ambroise,48.860934,2.375841
Amérique,Lassus - Delouvain,Amérique,48.87550448,2.389032733
Charonne,Orteaux - Mouraud,Charonne,48.85558643,2.408762908
Saint-Georges,Clichy - Place Blanche,Saint-Georges,48.88360109,2.333223782
Hôpital-Saint-Louis,Granges aux Belles - Hôpital Saint-Louis,Hôpital-Saint-Louis,48.87479499,2.366669437
Europe,Messine - Place Du Pérou,Europe,48.87544803,2.315508019
Saint-Gervais,Vieille du Temple - Francs Bourgeois,Saint-Gervais,48.85825641,2.358217947
Gare,Nationale - Marcel Duchamp,Gare,48.82463749,2.36780148
Parc-de-Montsouris,Ferrus - Saint-Jacques,Parc-de-Montsouris,48.8313878,2.3408563
Villette,Melun - Jean Jaurès,Villette,48.88377967,2.37647742
Grandes-Carrières,René Binet - Porte de Montmartre,Grandes-Carrières,48.8990511,2.33655341
Hôpital-Saint-Louis,Sambre et Meuse - Villette,Hôpital-Saint-Louis,48.87440567,2.373807238
Salpêtrière,Place d'Italie - Vincent Auriol,Salpêtrière,48.83148187,2.356755029
Saint-Vincent-de-Paul,Gare du Nord - Place de Valenciennes,Saint-Vincent-de-Paul,48.879089,2.354235
Porte-Dauphine,Saint-Didier - Raymond Poincaré,Porte-Dauphine,48.86642312,2.285863497
Batignolles,Batignolles - Beudant,Batignolles,48.88216401,2.319852971
Grenelle,La Motte-Picquet - Grenelle,Grenelle,48.84858321,2.299347818
Epinettes,Jacques Kellner - Saint-Ouen,Epinettes,48.89580949,2.327897409
Saint-Vincent-de-Paul,Faubourg Poissonnière - Dunkerque,Saint-Vincent-de-Paul,48.88088345,2.34993428
Quinze-Vingts,Gare de Lyon - Chalon,Quinze-Vingts,48.84566619,2.37414524
Grenelle,Emile Zola - Fondary,Grenelle,48.84705114,2.295340598
Bercy,Place Ginette Hamelin,Bercy,48.837853,2.382064
Necker,Bargue -  Dutot,Necker,48.837884,2.308876
Chaillot,Traktir - Foch,Chaillot,48.87275533,2.29154978
Bonne-Nouvelle,Saint-Denis - Réaumur,Bonne-Nouvelle,48.86611163,2.350779068
Halles,Française - Etienne Marcel,Halles,48.8640533,2.347587012
Plaisance,Adolphe Pinard - Victor Hugo,Plaisance,48.82368259,2.307784371
Saint-Merri,Place de l'Hôtel de Ville,Saint-Merri,48.8573314,2.351458
Montparnasse,Froidevaux - Boulard,Montparnasse,48.83514732,2.329441197
Bonne-Nouvelle,Aboukir - Alexandrie,Bonne-Nouvelle,48.86868344,2.350204327
Maison-Blanche,Gouthière - Poterne des Peupliers,Maison-Blanche,48.820507,2.351342
Combat,Edouard Pailleron - Bouret,Combat,48.88059769,2.376949489
Petit-Montrouge,René Coty - Place Denfert-Rochereau,Petit-Montrouge,48.83305648,2.332941145
La Chapelle,Evangile - Aubervilliers,La Chapelle,48.89503954,2.368796915
Gare,M.- A. Lagroua Weill-Hallé -  F. Dolto,Gare,48.82859528,2.380220606
Pont-de-Flandre,Metz - Marne,Pont-de-Flandre,48.891163,2.3865705
Sorbonne,Harpe - Saint-Germain,Sorbonne,48.85151882,2.343670316
Madeleine,Gare Saint-Lazare - Isly,Madeleine,48.87477768,2.326515805
Villette,Thionville - Ourcq,Villette,48.88917614,2.383365333
Petit-Montrouge,Mouton Duvernet - Général Leclerc,Petit-Montrouge,48.83163252,2.329312116
Rochechouart,Rochechouart lamartine,Rochechouart,48.8767199,2.344393022
Europe,Gare Saint-Lazare - Cour du Havre,Europe,48.8756744,2.326559834
Odéon,Michelet - Assas,Odéon,48.8427415,2.335021198
Saint-Fargeau,Belleville - Porte des Lilas,Saint-Fargeau,48.87660392,2.404769691
Grandes-Carrières,Porte de Saint-Ouen - Henri Huchard,Grandes-Carrières,48.89870837,2.32953608
Saint-Germain-l'Auxerrois,Victoria - Place du Chatelet,Saint-Germain-l'Auxerrois,48.85799259,2.346916795
Saint-Fargeau,Porte de Ménilmontant,Saint-Fargeau,48.86915436,2.409322469
Javel,Lourmel - Marie Skobtsov,Javel,48.844974,2.287283
Clignancourt,Ordener - Poissonniers,Clignancourt,48.89121389,2.351288666
Saint-Vincent-de-Paul,Faubourg Poissonniere - Delta,Saint-Vincent-de-Paul,48.88255581,2.349748202
Gros-Caillou,Berges de Seine - Musée d'Orsay,Gros-Caillou,48.86278859,2.30645936
Gare,Fernand Braudel - Vincent Auriol,Gare,48.83637852,2.372340448
Necker,Suffren - Pérignon,Necker,48.84717561,2.307052148
Maison-Blanche,Butte aux Cailles - Esperance,Maison-Blanche,48.82758774,2.349215113
Muette,Vignes - Boulainvilliers,Muette,48.85639948,2.275240459
Saint-Lambert,Paul Barruel - Vaugirard,Saint-Lambert,48.84014919,2.304433286
Saint-Lambert,Charles Lecocq - Lecourbe,Saint-Lambert,48.84044,2.294867
Folie-Méricourt,Pierre Levée - Fontaine Timbaud,Folie-Méricourt,48.86632723,2.371116355
Folie-Méricourt,Jean-Pierre Timbaud - Vaucouleurs,Folie-Méricourt,48.867937,2.377885
Gare,Place Nationale - Château-des-Rentiers,Gare,48.829566,2.365053
Grandes-Carrières,Ruisseau - Ordener,Grandes-Carrières,48.89299463,2.340144888
Charonne,Place de la Nation - Charonne,Charonne,48.84836467,2.399762386
Gros-Caillou,Bosquet - Saint-Dominique,Gros-Caillou,48.85865171,2.30371658
Halles,Etienne Marcel - Montorgueil,Halles,48.86450567,2.346195951
Arsenal,Quai des Célestins - Henri IV,Arsenal,48.8512971,2.3624535
Pont-de-Flandre,Place Paul Delouvrier,Pont-de-Flandre,48.89202581,2.385159396
Palais-Royal,Place André Malraux,Palais-Royal,48.86392516,2.335622683
Bel-Air,Sahel - Général Michel Bizot,Bel-Air,48.84087296,2.404444478
Necker,Duhamel - André Gide,Necker,48.83656622,2.312707121
Croulebarbe,Place d'Italie - Soeur Rosalie,Croulebarbe,48.83190852,2.354694345
Monnaie,André Mazet - Saint-André des Arts,Monnaie,48.85375581,2.339095809
Grandes-Carrières,Félix Ziem - Armand Gauthier,Grandes-Carrières,48.8894963,2.333393659
Chaussée-d'Antin,Boudreau - Auber,Chaussée-d'Antin,48.87219,2.329423
Ternes,Pereire - Ternes,Ternes,48.87973955,2.288012132
Saint-Victor,Institut du Monde Arabe - Saint-Germain,Saint-Victor,48.8490633,2.355808653
Picpus,Claude Decaen - Cannebière,Picpus,48.83761417,2.397253782
Notre-Dame-des-Champs,Notre-Dame-des-Champs - Stanislas,Notre-Dame-des-Champs,48.84479929,2.329337756
Grandes-Carrières,Cimetière de Montmartre,Grandes-Carrières,48.88647247,2.332890183
Bel-Air,Victor Hugo - Jeanne Jugan,Bel-Air,48.84394906,2.415081395
Clignancourt,Place Albert Kahn,Clignancourt,48.89579698,2.345585584
Parc-de-Montsouris,Sibelle - Alésia,Parc-de-Montsouris,48.82670176,2.338498347
Val-de-Grâce,Ulm - Louis Thuillier,Val-de-Grâce,48.842647,2.344593
Ternes,Place de la Porte de Champerret,Ternes,48.88561742,2.290781411
Halles,Cossonnerie - Sébastopol,Halles,48.86132666,2.349419631
Plaisance,Abbé Carton - Plantes,Plaisance,48.82767382,2.320918143
Roquette,Mairie du 11ème,Roquette,48.858925,2.3789759
Sorbonne,Saint-Jacques - Soufflot,Sorbonne,48.8465255,2.343099
Europe,Bienfaisance - Place de Narvik,Europe,48.87660163,2.312977128
Porte-Saint-Martin,Bourse du Travail,Porte-Saint-Martin,48.86897664,2.362343855
Père-Lachaise,Gambetta - Hôpital Tenon,Père-Lachaise,48.86792515,2.400976624
Necker,Square Cambronne,Necker,48.84756655,2.302569151
Saint-Fargeau,Square des Saint-Simoniens,Saint-Fargeau,48.8701796,2.3967273
Porte-Saint-Martin,René Boulanger - Lancry,Porte-Saint-Martin,48.8685433,2.3600032
Porte-Saint-Denis,Petites Ecuries - Faubourg Poissonnière,Porte-Saint-Denis,48.87397217,2.348388758
Sainte-Marguerite,Charonne - Robert et Sonia Delauney,Sainte-Marguerite,48.85590756,2.392570674
Jardin-des-Plantes,Pascal - Claude Bernard,Jardin-des-Plantes,48.83906195,2.349978201
Chaussée-d'Antin,Caumartin - Provence,Chaussée-d'Antin,48.87442277,2.328468561
Grenelle,Grenelle - Dr Finlay,Grenelle,48.85131541,2.291950285
Gare,Primo Levi - Frigos,Gare,48.83094845,2.379653516
Clignancourt,Ney - Porte de Clignancourt,Clignancourt,48.8978867,2.3458001
Saint-Vincent-de-Paul,Dunkerque - Alsace,Saint-Vincent-de-Paul,48.879355,2.358379
Sainte-Marguerite,Faubourg St-Antoine - Place de la Nation,Sainte-Marguerite,48.8487659,2.3940436
Ecole-Militaire,Ségur - d'Estrées,Ecole-Militaire,48.85141998,2.309704497
Saint-Thomas-d'Aquin,Musée d'Orsay,Saint-Thomas-d'Aquin,48.85972616,2.325860448
Odéon,Sénat - Condé,Odéon,48.84954228,2.337939441
Faubourg-du-Roule,Beaujon - Wagram,Faubourg-du-Roule,48.87535246,2.296441644
Parc-de-Montsouris,David Weill - Parc Montsouris,Parc-de-Montsouris,48.82109237,2.333725691
Bercy,Bercy,Bercy,48.83996691,2.378862575
Charonne,Saint-Blaise - Mouraud,Charonne,48.85696178,2.408694774
Batignolles,Marie-Georges Picquart - Pereire,Batignolles,48.88863669,2.31117066
Faubourg-du-Roule,Chateaubriand - Friedland,Faubourg-du-Roule,48.87401448,2.299916258
Madeleine,Roquépine - Malesherbes,Madeleine,48.87345073,2.3204045
Folie-Méricourt,Grand Prieuré - Crussol,Folie-Méricourt,48.86466063,2.369226553
Villette,Place de l'Édit de Nantes,Villette,48.88879,2.3785
Madeleine,Malesherbes - Place de la Madeleine,Madeleine,48.87040603,2.32324351
Saint-Ambroise,Pelée - Alphonse Baudin,Saint-Ambroise,48.8600265,2.3710541
Invalides,Varenne,Invalides,48.85720266,2.315277122
Porte-Saint-Denis,Gare de l'Est - Fidélité,Porte-Saint-Denis,48.874575,2.356796
Saint-Victor,Pontoise - La Tournelle,Saint-Victor,48.85045801,2.352454275
Faubourg-du-Roule,Courcelles - Place des Ternes,Faubourg-du-Roule,48.87819993,2.299286019
Porte-Dauphine,Malakoff - Place de la Porte Maillot,Porte-Dauphine,48.8767335,2.283457741
Pont-de-Flandre,Porte de Pantin - Petits Ponts,Pont-de-Flandre,48.89041086,2.398193926
Sorbonne,Sommerard - Saint-Jacques,Sorbonne,48.85031043,2.345015835
Bercy,Daumesnil - Hébrard,Bercy,48.8429,2.38474
Clignancourt,Tardieu - Chappe,Clignancourt,48.88414676,2.341845408
Pont-de-Flandre,Gaston Tessier - Rosa Parks RER,Pont-de-Flandre,48.8963765,2.3743692
Salpêtrière,Pitié-Salpêtrière,Salpêtrière,48.83720806,2.36468643
Goutte-d'Or,Goutte d'or - Barbès,Goutte-d'Or,48.88512432,2.349696234
Pont-de-Flandre,Cité des Sciences et de l'Industrie,Pont-de-Flandre,48.89659571,2.384599149
Batignolles,Lemercier - Cardinet,Batignolles,48.89009717,2.317377627
Grandes-Carrières,Belliard - Damrémont,Grandes-Carrières,48.89669239,2.33802345
Grenelle,Suffren - Champ de Mars,Grenelle,48.8547194,2.2952168
Muette,Place de Passy,Muette,48.85780292,2.277500547
Grenelle,Square Bela Bartok,Grenelle,48.85120157,2.284653671
Saint-Lambert,Saint-Amand - Labrouste,Saint-Lambert,48.83409727,2.308767736
Vivienne,Vivienne - Montmartre,Vivienne,48.8713476,2.341458835
Saint-Merri,Sebastopol - Rambuteau,Saint-Merri,48.86181809,2.350138128
Saint-Merri,Cloître Saint-Merri - Renard,Saint-Merri,48.85883545,2.351827919
Maison-Blanche,Boussingault - Tolbiac,Maison-Blanche,48.82603517,2.342176808
Vivienne,Bibliothèque Nationale,Vivienne,48.86828899,2.33808931
Quinze-Vingts,Bastille - Quai de la Rapée,Quinze-Vingts,48.84682411,2.366936468
Javel,Place Charles Michels,Javel,48.846401,2.28502
Saint-Vincent-de-Paul,Gare du Nord - Denain,Saint-Vincent-de-Paul,48.87959579,2.354472578
Saint-Germain-des-Prés,Saint-Benoît - Jacob,Saint-Germain-des-Prés,48.85545136,2.333472222
Saint-Merri,Hôtel de Ville - Pont d'Arcole,Saint-Merri,48.85587645,2.350892164
Porte-Dauphine,Porte de la Muette,Porte-Dauphine,48.86302318,2.268718817
Goutte-d'Or,Poissonniers - Championnet,Goutte-d'Or,48.895433,2.353017814
Charonne,Docteurs Déjérine - Pte de Montreuil,Charonne,48.85398448,2.412082889
Picpus,Reuilly - Place Felix Eboue,Picpus,48.84030274,2.394630399
Faubourg-du-Roule,Artois - Berri,Faubourg-du-Roule,48.87393521,2.306425832
Maison-Blanche,Porte d'Italie,Maison-Blanche,48.81716199,2.360236309
Saint-Lambert,Cadix - Hameau,Saint-Lambert,48.83401076,2.289516181
Folie-Méricourt,Temple - Charlot,Folie-Méricourt,48.86570934,2.365273725
Javel,Cauchy - Cévennes,Javel,48.84337257,2.275132835
Halles,Turbigo - Française,Halles,48.86358858,2.34777946
Clignancourt,Square Louise Michel,Clignancourt,48.88468735,2.344138697
Amérique,Petit - Georges Thill,Amérique,48.88603132,2.389575318
Clignancourt,Rochechouart - Martyrs,Clignancourt,48.88219378,2.340549566
Picpus,Hippodrome Paris-Vincennes,Picpus,48.82128854,2.453084316
Place-Vendôme,Saint-Honoré - 29 juillet,Place-Vendôme,48.86557114,2.330567418
Charonne,Bagnolet - Orteaux,Charonne,48.85708641,2.398412526
Porte-Dauphine,Belles Feuilles - Place de Mexico,Porte-Dauphine,48.86580475,2.282920629
Necker,Cherche-Midi - Hôpital Necker,Necker,48.84461063,2.317914069
Gare,Place du Docteur Yersin,Gare,48.82010495,2.372558378
Gare,Leredde - Tolbiac,Gare,48.8288763,2.374438271
Champs-Elysées,Pierre Charron - Champs-Elysées,Champs-Elysées,48.87010336,2.304350138
Roquette,Richard Lenoir - Place de la Bastille,Roquette,48.8538327,2.3697222
Ternes,Place Tristan Bernard,Ternes,48.8791964,2.2915403
Charonne,Pyrénées - Avron,Charonne,48.8532469,2.405871045
Père-Lachaise,Gambetta - Père Lachaise,Père-Lachaise,48.8642957,2.398228667
Batignolles,Legendre - Nollet,Batignolles,48.88774219,2.32029308
Gare,Nationale - Vincent Auriol,Gare,48.83252708,2.36235441
Amérique,Porte de Pantin,Amérique,48.88919973,2.39501819
Saint-Vincent-de-Paul,Louis Blanc - Aqueduc,Saint-Vincent-de-Paul,48.88203018,2.363561578
Necker,Arsonval - Falguière,Necker,48.8404004,2.313117867
Maison-Blanche,Bobillot - Moulin des Prés,Maison-Blanche,48.82865735,2.353020646
Gare,Pau Casals - Neuve Tolbiac,Gare,48.8311602,2.3774395
Gaillon,Danielle Casanova - Opéra,Gaillon,48.86764324,2.333389409
Charonne,Bagnolet - Place Saint-Blaise,Charonne,48.85973,2.40334
Notre-Dame-des-Champs,Assas - Rennes,Notre-Dame-des-Champs,48.8492085,2.328514546
Charonne,Charonne - Alexandre Dumas,Charonne,48.85607742,2.394869328
Invalides,Constantine - Université,Invalides,48.86068047,2.314848196
Bel-Air,Saint-Mandé - Docteur Arnold Netter,Bel-Air,48.84462586,2.404946387
Saint-Lambert,Morillons - Dantzig,Saint-Lambert,48.8331015,2.299380004
Epinettes,Jonquière - Docteur Paul Brousse,Epinettes,48.89479982,2.318705212
Ternes,Jean Oestreicher - Porte de Champerret,Ternes,48.8865558,2.28864044
Madeleine,Square Louis XVI,Madeleine,48.8732044,2.323658831
Clignancourt,Clignancourt - Ordener,Clignancourt,48.89145773,2.348636478
Ternes,Belidor - Gouvion-Saint-Cyr,Ternes,48.88022154,2.285468057
La Chapelle,Pajol - Place Herbert,La Chapelle,48.8927825,2.3635598
Amérique,Manin - Carrières d'Amérique,Amérique,48.88467214,2.39196986
Grenelle,Fédération - Suffren,Grenelle,48.85282815,2.297877632
Chaussée-d'Antin,Victoire - Chaussée d'Antin,Chaussée-d'Antin,48.87506579,2.331673801
Saint-Fargeau,Lieutenant Chauré - Etienne Marey,Saint-Fargeau,48.86746195,2.405970991
Gare,Porte d'Ivry,Gare,48.82176875,2.368870676
Invalides,Quai d'Orsay - Invalides,Invalides,48.8630969,2.316989621
Gare,Vincent Auriol - Louise Weiss,Gare,48.83400194,2.370388806
Bercy,Gare de Bercy,Bercy,48.83979457,2.382606603
Batignolles,Batignolles - Abel Truchet,Batignolles,48.8831039,2.323834749
Père-Lachaise,Indre - Prairies,Père-Lachaise,48.86254399,2.403290458
Javel,Félix Faure - Lourmel,Javel,48.83868902,2.281808183
Charonne,Haies - Réunion,Charonne,48.85386897,2.402426162
Quinze-Vingts,Traversière - Ledru-Rollin,Quinze-Vingts,48.85073582,2.375870112
Saint-Fargeau,Place du Maquis du Vercors,Saint-Fargeau,48.87732158,2.408378273
Grandes-Carrières,Place Pigalle,Grandes-Carrières,48.8827555,2.3361566
Javel,Convention - Saint-Charles,Javel,48.84315611,2.283109054
Roquette,Keller - La Roquette,Roquette,48.8555508,2.3752778
Sainte-Marguerite,Faidherbe - Dahomey,Sainte-Marguerite,48.85135833,2.383823135
Roquette,Roquette - Folie Regnault,Roquette,48.85924696,2.386553624
Picpus,Tremblay - Lac des Minimes,Picpus,48.83413126,2.454751655
Gare,Choisy - Tolbiac,Gare,48.82591156,2.360239327
Saint-Georges,Athènes - Clichy,Saint-Georges,48.87811379,2.329560219
Saint-Fargeau,Square de la rue Pixérécourt,Saint-Fargeau,48.8736824,2.3960278
Val-de-Grâce,Georges Bernanos - Port Royal,Val-de-Grâce,48.84014521,2.337357402
Notre-Dame,Quai aux Fleurs - Pont Saint-Louis,Notre-Dame,48.85291596,2.352195717
Javel,Convention - Lourmel,Javel,48.84205504,2.285991088
Chaillot,Pergolèse - Malakoff,Chaillot,48.87521089,2.284278162
Sainte-Marguerite,Charonne - Bureau,Sainte-Marguerite,48.854176,2.396093
Necker,Cambronne - Villa Croix Nivert,Necker,48.84584756,2.301757447
Jardin-des-Plantes,Place Monge,Jardin-des-Plantes,48.8427618,2.352407947
Faubourg-Montmartre,Geoffroy - Marie,Faubourg-Montmartre,48.87378194,2.344513876
La Chapelle,Jardins d'Eole,La Chapelle,48.8869703,2.3668488
Plaisance,Didot - Place de Moro-Giafferi,Plaisance,48.8337,2.3215
Plaisance,Plantes - Moulin Vert,Plaisance,48.83005755,2.323230207
Hôpital-Saint-Louis,Claude Vellefaux - Hôpital Saint-Louis,Hôpital-Saint-Louis,48.87285914,2.370071707
Bel-Air,Niger - Soult,Bel-Air,48.84369906,2.410361237
Quinze-Vingts,Lacuée - Lyon,Quinze-Vingts,48.84926848,2.370458543
Palais-Royal,Saint-Honoré - Musée du Louvre,Palais-Royal,48.86344313,2.334878185
Combat,Manin - Secrétan,Combat,48.8791665,2.3787959
Europe,Saint-Augustin,Europe,48.87620097,2.319786251
Chaussée-d'Antin,Taitbout - Châteaudun,Chaussée-d'Antin,48.87638397,2.335356678
Quinze-Vingts,Hector Malot - Daumesnil,Quinze-Vingts,48.84693553,2.377087623
Epinettes,Guy Môquet - Compoint,Epinettes,48.89213559,2.323219478
Belleville,Etienne Dolet - Place Maurice Chevalier,Belleville,48.86798303,2.385140531
Pont-de-Flandre,Flandre - Ourcq,Pont-de-Flandre,48.89260159,2.379091568
Plaine de Monceaux,Jouffroy d'Abbans - Wagram,Plaine de Monceaux,48.8819733,2.301132157
Folie-Méricourt,Faubourg Du Temple - Republique,Folie-Méricourt,48.86787248,2.364898216
Saint-Victor,Thouin - Cardinal Lemoine,Saint-Victor,48.84504717,2.349464785
Javel,Général Martial Valin - Pont du Garigliano,Javel,48.83823094,2.270506024
Père-Lachaise,Pyrénées - Ménilmontant,Père-Lachaise,48.86932685,2.395084575
Hôpital-Saint-Louis,Granges aux Belles,Hôpital-Saint-Louis,48.87613734,2.368084498
Saint-Vincent-de-Paul,Dunkerque - Rocroy,Saint-Vincent-de-Paul,48.880726,2.351464
Hôpital-Saint-Louis,Gare de l'Est - Faubourg-Saint-Martin,Hôpital-Saint-Louis,48.87564265,2.359458804
Pont-de-Flandre,Delphine Seyrig - Général Leclerc,Pont-de-Flandre,48.89392396,2.397902906
Porte-Saint-Martin,Récollets - Square Villemin,Porte-Saint-Martin,48.87503466,2.359801239
Europe,Liège - Moscou,Europe,48.8795431,2.3264628
Faubourg-du-Roule,Bertie Albrecht - Hoche,Faubourg-du-Roule,48.8761404,2.301303138
Folie-Méricourt,Oberkampf - République,Folie-Méricourt,48.8654533,2.3760261
Goutte-d'Or,Stephenson - Doudeauville,Goutte-d'Or,48.88853705,2.356161028
Clignancourt,Clignancourt - Sofia,Clignancourt,48.88508465,2.347131105
Clignancourt,Clignancourt - Sofia,Clignancourt,48.88510382,2.347264811
Bercy,Pirogues de Bercy - Libourne,Bercy,48.832308,2.38637
Faubourg-du-Roule,Commandant Rivière,Faubourg-du-Roule,48.872933,2.309796
Petit-Montrouge,Sarrette - Général Leclerc,Petit-Montrouge,48.82503085,2.326412869
Jardin-des-Plantes,Place Valhubert,Jardin-des-Plantes,48.84418258,2.364036664
Petit-Montrouge,Porte d'Orléans,Petit-Montrouge,48.8227639,2.3249313
Plaisance,Colonel Monteil - Brune,Plaisance,48.82650293,2.3092748
Batignolles,Bridaine - Lamandé,Batignolles,48.8862074,2.3206239
Amérique,Belleville - Télégraphe,Amérique,48.8756045,2.3995549
Epinettes,Square des Epinettes,Epinettes,48.8938391,2.32595399
Plaisance,Alésia - Suisses,Plaisance,48.83168252,2.314986923
Gare,Eugène Oudiné - Dessous Des Berges,Gare,48.8256423,2.3750226
Champs-Elysées,François 1er - Montaigne,Champs-Elysées,48.86688765,2.306675576
Monnaie,Pont de Lodi - Dauphine,Monnaie,48.8552969,2.339947308
Faubourg-Montmartre,Rougemont - Poissonnière,Faubourg-Montmartre,48.87161157,2.34587308
Saint-Lambert,Square Desnouettes,Saint-Lambert,48.83476838,2.284142297
Gaillon,Daunou - Louis le Grand,Gaillon,48.869113,2.332515
Auteuil,Versailles - Claude Terrasse,Auteuil,48.84021934,2.263834191
Faubourg-Montmartre,Bleue - Trévise,Faubourg-Montmartre,48.87578907,2.347289622
Sainte-Marguerite,Place Mireille Havet,Sainte-Marguerite,48.850533,2.383756
Montparnasse,Odessa - Départ,Montparnasse,48.84288559,2.324428149
Ternes,Jardin Marguerite Long,Ternes,48.88169858,2.283657566
Parc-de-Montsouris,René Coty - Parc Montsouris,Parc-de-Montsouris,48.82479134,2.336124927
Charonne,Cours de Vincennes - Davout,Charonne,48.84723803,2.410704234
Javel,Place de la Montagne du Goulet,Javel,48.8443415,2.2773844
Europe,Joseph Sansboeuf - Saint Lazare,Europe,48.87531563,2.322901972
Grenelle,Commerce - Letellier,Grenelle,48.8479766,2.29662452
Faubourg-Montmartre,Cadet - La Fayette,Faubourg-Montmartre,48.87560163,2.343570404
Gros-Caillou,La Motte-Picquet - La Tour Maubourg,Gros-Caillou,48.8572316,2.3094136
Saint-Merri,Centre Georges Pompidou,Saint-Merri,48.861419,2.352581
Petit-Montrouge,Place des Droits de l'Enfant,Petit-Montrouge,48.8274804,2.3319217
Faubourg-du-Roule,Jean Mermoz - Champs-Elysées,Faubourg-du-Roule,48.86968986,2.310732454
Porte-Dauphine,Flandrin - Longchamp,Porte-Dauphine,48.86877849,2.274354539
Picpus,Gare de Reuilly - Picpus,Picpus,48.84267354,2.39729438
Clignancourt,Porte de Clignancourt - Ney,Clignancourt,48.89964112,2.344321422
Europe,Gare Saint-Lazare - Stockholm,Europe,48.87712732,2.322417162
Archives,Beaumarchais - Saint-Gilles,Archives,48.8580378,2.3679352
Arts-et-Métiers,Sainte-Elisabeth - Turbigo,Arts-et-Métiers,48.86610337,2.359649241
Saint-Vincent-de-Paul,Magenta - Chabrol,Saint-Vincent-de-Paul,48.87649535,2.356099002
Picpus,Saint-Mande - Picpus,Picpus,48.84512773,2.40156863
Gare,Chevaleret - Louise Weiss,Gare,48.83258651,2.371211388
Saint-Lambert,Lecourbe - Convention,Saint-Lambert,48.83923319,2.291519791
Père-Lachaise,Square des Amandiers,Père-Lachaise,48.86615631,2.389132418
Auteuil,Marché d'Auteuil,Auteuil,48.84842761,2.265253821
Villette,Lorraine - Jean Jaurès,Villette,48.8863865,2.3825772
Necker,Volontaires - Vaugirard,Necker,48.8413205,2.308089017
Odéon,Guynemer - Jardin du Luxembourg,Odéon,48.8466127,2.3325478
Porte-Saint-Martin,Alibert - Jemmapes,Porte-Saint-Martin,48.87104405,2.366104462
Plaine de Monceaux,Chazelles - Courcelles,Plaine de Monceaux,48.8794066,2.303445563
Faubourg-du-Roule,Boétie - Ponthieu,Faubourg-du-Roule,48.87141728,2.307678759
Montparnasse,Edgar Quinet - Raspail,Montparnasse,48.83940267,2.329714783
Petit-Montrouge,Cimetière de Montrouge,Petit-Montrouge,48.822009,2.322188699
Porte-Saint-Martin,Jemmapes - Grange aux Belles,Porte-Saint-Martin,48.873462,2.364035
Vivienne,Chabanais - Petits Champs,Vivienne,48.867281,2.336729
Sorbonne,Saint-Germain - Thenard,Sorbonne,48.850571,2.3471015
Muette,Route de Sèvres - Porte de Bagatelle,Muette,48.87525984,2.249415815
Montparnasse,Edgar Quinet - Gaité,Montparnasse,48.84116093,2.324595451
Belleville,Henri Chevreau - Couronnes,Belleville,48.87033205,2.388777696
Sainte-Marguerite,Charles Delescluze,Sainte-Marguerite,48.85242201,2.380632497
Plaisance,Jonquoy - Didot,Plaisance,48.82890455,2.316480763
Gare,Dunois - Clisson,Gare,48.832294,2.3674523
Roquette,Belfort - Voltaire,Roquette,48.8563358,2.3829901
Chaussée-d'Antin,Laffitte - Italiens,Chaussée-d'Antin,48.87181574,2.337201548
Necker,Maine - Antoine Bourdelle,Necker,48.84308532,2.320263947
Javel,Place du Moulin de Javel,Javel,48.84021671,2.271606065
Saint-Ambroise,Ménilmontant - Père Lachaise,Saint-Ambroise,48.86328729,2.386994027
Arsenal,Bastille - Beaumarchais,Arsenal,48.85383346,2.368570268
Saint-Vincent-de-Paul,Gare du Nord - Demarquay,Saint-Vincent-de-Paul,48.881154,2.358411
Champs-Elysées,François 1er - Lincoln,Champs-Elysées,48.86951798,2.302426219
Saint-Lambert,Sellier - Saint-Cloud,Saint-Lambert,48.83668687,2.292928436
Epinettes,Brochant - Clichy,Epinettes,48.89032999,2.31973056
Sainte-Marguerite,Montreuil - Voltaire,Sainte-Marguerite,48.85050701,2.393075558
Porte-Dauphine,Eylau - Trocadéro,Porte-Dauphine,48.86335412,2.286420912
Saint-Lambert,Convention - Vaugirard,Saint-Lambert,48.83767682,2.295586926
Gare,Quai de la Gare - Pont de Bercy,Gare,48.83730788,2.374086126
Petit-Montrouge,Jean Moulin - Place Victor et Hélène Basch,Petit-Montrouge,48.8276491,2.32619673
Clignancourt,Joseph Dijon - Ornano,Clignancourt,48.89374453,2.347667813
Saint-Gervais,Saint-Antoine Sévigné,Saint-Gervais,48.8550222,2.3612322
Charonne,Davout - Volga,Charonne,48.85291968,2.41052291
Necker,Gare Montparnasse - Arrivée,Necker,48.84382799,2.322581112
Hôpital-Saint-Louis,Place du Colonel Fabien,Hôpital-Saint-Louis,48.87756832,2.369879186
Parc-de-Montsouris,Jourdan - Cité Universitaire,Parc-de-Montsouris,48.81989734,2.339700796
Salpêtrière,Gare d'Austerlitz - Pont Charles de Gaulle,Salpêtrière,48.84231983,2.36703001
Gaillon,Choiseul - Quatre Septembre,Gaillon,48.86993553,2.335997522
Saint-Gervais,Mairie du 4ème,Saint-Gervais,48.85594991,2.35638231
Sainte-Avoie,Archives - Pastourelle,Sainte-Avoie,48.8623615,2.3595041
Mail,Saint-Fiacre - Poissonière,Mail,48.87082891,2.34592136
Jardin-des-Plantes,Gobelins - Port-Royal,Jardin-des-Plantes,48.8371359,2.351520136
Picpus,Dom-Pérignon - Gravelle,Picpus,48.82548157,2.40988031
Porte-Saint-Denis,Hauteville - Bonne Nouvelle,Porte-Saint-Denis,48.87077436,2.349649637
Batignolles,Pereire - Saussure,Batignolles,48.8882568,2.3102882
Saint-Ambroise,Guillaume Bertrand - République,Saint-Ambroise,48.86382517,2.380906377
Notre-Dame-des-Champs,Saint-Romain - Cherche-Midi,Notre-Dame-des-Champs,48.84708159,2.321374789
Croulebarbe,Croulebarde - Corvisart,Croulebarbe,48.83098166,2.348164693
Amérique,Ambroise Rendu - Porte Brunet,Amérique,48.883667,2.395733
Ecole-Militaire,Saint-François-Xavier,Ecole-Militaire,48.85154485,2.314614952
Hôpital-Saint-Louis,Jemmapes - Ecluses Saint-Martin,Hôpital-Saint-Louis,48.87748519,2.366006747
Batignolles,Mairie du 17ème,Batignolles,48.88416185,2.322079431
Saint-Victor,Mutualité,Saint-Victor,48.84822557,2.350287326
Saint-Ambroise,Amelot - Saint-Sébastien,Saint-Ambroise,48.86114216,2.367799618
Sorbonne,Panthéon - Valette,Sorbonne,48.84702057,2.346498262
Montparnasse,Schoelcher - Raspail,Montparnasse,48.83681734,2.331279408
Grenelle,Grenelle - Violet,Grenelle,48.84993036,2.294612043
Saint-Lambert,Parc Georges Brassens - Brancion,Saint-Lambert,48.83227829,2.302257009
Plaine de Monceaux,Reims - Raymond Pitet,Plaine de Monceaux,48.8888,2.296319
Muette,Faustin Hélie - Desbordes-Valmore,Muette,48.859403,2.276522
Bel-Air,Porte de Vincennes,Bel-Air,48.846454,2.415514
Folie-Méricourt,Temple - Jean-Pierre Timbaud,Folie-Méricourt,48.86446597,2.366059721
Quinze-Vingts,Gare de Lyon - Roland Barthes,Quinze-Vingts,48.84395729,2.379088216
Saint-Lambert,Ernest Renan - Parc des Expositions,Saint-Lambert,48.83089757,2.285358422
Batignolles,Gare de Pont-Cardinet,Batignolles,48.88713901,2.314494144
Notre-Dame-des-Champs,Mézières - Rennes,Notre-Dame-des-Champs,48.85023459,2.330381982
Villette,Tanger - Place du Maroc,Villette,48.88625244,2.368929684
Clignancourt,Mairie du 18ème,Clignancourt,48.8929393,2.344551086
La Chapelle,Pajol - Riquet,La Chapelle,48.88960028,2.362853475
Clignancourt,Emile Blemont - Poteau,Clignancourt,48.8943782,2.3415122
Sainte-Marguerite,Boulets - Faubourg Saint-Antoine,Sainte-Marguerite,48.84925926,2.391754614
Rochechouart,Lallier - Trudaine,Rochechouart,48.88109247,2.340822481
Muette,Chernoviz - Raynouard,Muette,48.85698641,2.282173218
Necker,Gare Montparnasse - Vaugirard,Necker,48.84180718,2.319510027
Grandes-Carrières,Damrémont - Caulaincourt,Grandes-Carrières,48.88714509,2.332588099
Jardin-des-Plantes,Censier - Jardin des Plantes,Jardin-des-Plantes,48.84107178,2.355475388
Saint-Fargeau,Saint-Fargeau - Mortier,Saint-Fargeau,48.87266656,2.40791291
Charonne,Buzenval - Avron,Charonne,48.8516172,2.401513597
Maison-Blanche,Brillat-Savarin - Küss,Maison-Blanche,48.822203,2.350422
Maison-Blanche,Bobillot - Paulin Mery,Maison-Blanche,48.82989984,2.354335677
Javel,Javel - André Citroën,Javel,48.84627649,2.278636806
Saint-Georges,Douai - Pierre Fontaine,Saint-Georges,48.88229101,2.333241217
Plaisance,Maurice d'Ocagne - General Maudhuy,Plaisance,48.82414283,2.315878943
Picpus,Vivaldi - Antoine-Julien Hénard,Picpus,48.84192366,2.389728979
Petit-Montrouge,Mairie du 14ème,Petit-Montrouge,48.83254578,2.325492315
Gare,Bibliothèque Nationale de France,Gare,48.8351705,2.375830152
Arsenal,Bourdon - Pont Morland,Arsenal,48.8478103,2.3659356
Picpus,Reuilly - Daumesnil,Picpus,48.8395385,2.3972516
Rochechouart,Square Montholon,Rochechouart,48.87662038,2.345764115
Grandes-Carrières,Leibniz - Jean Dollfus,Grandes-Carrières,48.89632835,2.333390424
Saint-Vincent-de-Paul,Louis Blanc - La Chapelle,Saint-Vincent-de-Paul,48.88400896,2.359933555
Villette,Centquatre,Villette,48.88933354,2.370785438
Charonne,Pyrénées - Plaine,Charonne,48.85026702,2.406282127
Picpus,Charenton - Jardiniers,Picpus,48.83382177,2.394692664
Arts-et-Métiers,Turbigo - Réaumur,Arts-et-Métiers,48.86557405,2.356419861
Bonne-Nouvelle,Square Pierre Lazareff,Bonne-Nouvelle,48.86714172,2.348393351
Halles,Oratoire - Rivoli,Halles,48.86134276,2.340004742
Picpus,Cardinal Lavigerie,Picpus,48.83293419,2.402636749
Palais-Royal,Place du Palais Royal,Palais-Royal,48.86243023,2.338520131
Père-Lachaise,Sorbier - Gasnier-Guy,Père-Lachaise,48.86521763,2.393659651
Amérique,Belleville -  Pré Saint-Gervais,Amérique,48.87556591,2.393046096
Pont-de-Flandre,Macdonald - Césaria Evora,Pont-de-Flandre,48.89883,2.37933
Combat,Rampal - Belleville,Combat,48.8730216,2.379910983
Charonne,Pyrénées - Dagorno,Charonne,48.85542577,2.405164316
Pont-de-Flandre,Crimée - Ourcq,Pont-de-Flandre,48.89410414,2.372946088
Saint-Georges,Toudouze - Clauzel,Saint-Georges,48.87929592,2.337360084
Ecole-Militaire,Invalides - Duroc,Ecole-Militaire,48.84779247,2.316192091
Rochechouart,Abbeville - Faubourg Poissonnière,Rochechouart,48.879223,2.349147
Villette,Quai de la Seine,Villette,48.88449224,2.37039417
Roquette,Saint-Maur - Roquette,Roquette,48.85868877,2.383553995
Ternes,Pereire - Rennequin,Ternes,48.88364783,2.295244709
Salpêtrière,Gare d'Austerlitz,Salpêtrière,48.842524,2.364044
Picpus,Pyramide - Ecole du Breuil,Picpus,48.82237977,2.458687127
Javel,Hôpital Européen Georges Pompidou,Javel,48.83769532,2.275374234
Gare,Chevaleret - Tolbiac,Gare,48.82941,2.375934
Gare,Quai Panhard et Levassor,Gare,48.82837483,2.384273746
Saint-Thomas-d'Aquin,Raspail - Bac,Saint-Thomas-d'Aquin,48.85562872,2.325660288
Auteuil,Porte d'Auteuil,Auteuil,48.84793941,2.260839678
Picpus,Charenton - Wattignies,Picpus,48.8366758,2.391795856
Muette,Longchamp - Suresnes,Muette,48.86300829,2.240828143
Grenelle,Emeriau - Place de Brazzaville,Grenelle,48.85078526,2.287158519
Monnaie,Danton - Serpente,Monnaie,48.85229736,2.341413237
Porte-Dauphine,Mahatma Gandhi,Porte-Dauphine,48.876356,2.264205
Roquette,Ledru-Rollin - Place du Père Chaillet,Roquette,48.85643371,2.379020588
Javel,Place Etienne Pernet,Javel,48.84243457,2.292181961
Saint-Lambert,Porte de Versailles,Saint-Lambert,48.83215382,2.287149131
Folie-Méricourt,Place Pasdeloup,Folie-Méricourt,48.86265422,2.367032506
Plaisance,Pernety - Raymond Losserand,Plaisance,48.83425463,2.317609339
Saint-Vincent-de-Paul,Aqueduc - Villette,Saint-Vincent-de-Paul,48.88388606,2.367198803
Belleville,Belleville - Pyrénées,Belleville,48.8741908,2.3860039
Clignancourt,Poissonniers - Nord,Clignancourt,48.89251121,2.352222875
Invalides,Place de Finlande,Invalides,48.86240834,2.311362438
Folie-Méricourt,Place de la République - Voltaire,Folie-Méricourt,48.86683097,2.365481034
Saint-Ambroise,Square du Bataclan,Saint-Ambroise,48.8633762,2.3711327
Bercy,Terroirs de France - Lheureux,Bercy,48.83212027,2.388618104
Rochechouart,Choron - Martyrs,Rochechouart,48.87785144,2.339670137
Muette,Ranelagh - Maison de la Radio,Muette,48.85293603,2.280449644
Plaine de Monceaux,Place de Lévis,Plaine de Monceaux,48.88354685,2.313193381
Chaillot,Portugais - Kléber,Chaillot,48.8712148,2.2937349
Saint-Germain-des-Prés,Saint-Germain - Ciseaux,Saint-Germain-des-Prés,48.85330528,2.334465462
Chaussée-d'Antin,Godot de Mauroy - Madeleine,Chaussée-d'Antin,48.869789,2.326347
Sainte-Avoie,Bourg l'Abbé - Saint-Martin,Sainte-Avoie,48.86393332,2.352406271
Europe,Villiers - Batignolles,Europe,48.88125254,2.316538431
Archives,Perle - Vieille du Temple,Archives,48.8601346,2.3611206
Madeleine,Place de la Madeleine - Royale,Madeleine,48.86922805,2.324421108
Plaisance,Maine - Liancourt,Plaisance,48.83506436,2.32373145
Porte-Saint-Denis,Petites Ecuries - Faubourg Saint-Denis,Porte-Saint-Denis,48.87287121,2.354215086
Chaussée-d'Antin,Chaussée d'Antin - Haussmann,Chaussée-d'Antin,48.87243,2.33359
Place-Vendôme,Alger - Rivoli,Place-Vendôme,48.86477355,2.329449394
Necker,Cambronne - Mademoiselle,Necker,48.84327733,2.302307669
Plaisance,Gergovie - Alésia,Plaisance,48.83088717,2.318882101
Quinze-Vingts,Bercy - Traversiére,Quinze-Vingts,48.84619264,2.370380089
Picpus,Bois de Vincennes - Polygone,Picpus,48.83544492,2.431421081
Saint-Victor,Lacépède - Linné,Saint-Victor,48.84370355,2.35465128
Amérique,Serrurier,Amérique,48.8804934,2.398064174
Saint-Georges,Gare Saint-Lazare - Place de Budapest,Saint-Georges,48.877753,2.327339
Goutte-d'Or,Chartres - La Charbonnière,Goutte-d'Or,48.8847601,2.3534657
Saint-Fargeau,Gambetta - Saint Fargeau,Saint-Fargeau,48.87124461,2.40390569
Javel,Cevennes - Bergers,Javel,48.84240765,2.281037718
Clignancourt,Marcadet - Barbès,Clignancourt,48.89045112,2.349057393
Auteuil,Molitor - Chardon-Lagache,Auteuil,48.8452088,2.265684083
Auteuil,Exelmans - Michel-Ange,Auteuil,48.84309487,2.25977708
Rochechouart,Square d'Anvers,Rochechouart,48.88263348,2.344884406
Epinettes,Navier - Epinettes,Epinettes,48.89587781,2.322677672
Porte-Saint-Martin,Lucien Sampaix - Récollets,Porte-Saint-Martin,48.87433038,2.362122908
Rochechouart,Milton - Manuel,Rochechouart,48.878249,2.341181
Charonne,Pyrénées - Maraîchers,Charonne,48.85714001,2.404350936
Saint-Vincent-de-Paul,Gare du Nord - Dunkerque,Saint-Vincent-de-Paul,48.88042351,2.352763675
Saint-Germain-des-Prés,Sabot - Rennes,Saint-Germain-des-Prés,48.85257511,2.331552766
Ecole-Militaire,Duroc - Place de Breteuil,Ecole-Militaire,48.84746064,2.312614024
Sainte-Marguerite,Charonne - Philippe-Auguste,Sainte-Marguerite,48.85560316,2.390546391
Arts-et-Métiers,Porte Saint-Martin,Arts-et-Métiers,48.86860172,2.355701029
Arsenal,Mornay - Sully,Arsenal,48.849704,2.364460789
Salpêtrière,Paul Klee - Place Augusta Holmes,Salpêtrière,48.83894642,2.370423566
Saint-Germain-des-Prés,Saint-Germain-des-Prés,Saint-Germain-des-Prés,48.85418511,2.330305874
Chaussée-d'Antin,Saint-Lazare - Place d'Estienne d'Orves,Chaussée-d'Antin,48.8768345,2.3329067
Salpêtrière,Hôpital - Campo-Formio,Salpêtrière,48.835405,2.358218
Porte-Dauphine,Victor Hugo - La Pompe,Porte-Dauphine,48.86795222,2.281463183
Plaine de Monceaux,Berthier - Place Stuart Merril,Plaine de Monceaux,48.88592792,2.293345034
Javel,Quai du Président Roosevelt - Pont Aval,Javel,48.83438837,2.265682071
Plaine de Monceaux,Toqueville - Cardinet,Plaine de Monceaux,48.88490187,2.310939319
Quinze-Vingts,Crozatier - Faubourg Saint-Antoine,Quinze-Vingts,48.85044001,2.378901366
Bel-Air,Rottembourg - Général Michel Bizot,Bel-Air,48.83787826,2.404405251
Necker,Hôpital Necker,Necker,48.84604349,2.313245013
Notre-Dame-des-Champs,Chevreuse - Montparnasse,Notre-Dame-des-Champs,48.84173916,2.331552217
Croulebarbe,Cordelières - Arago,Croulebarbe,48.83548072,2.348572462
Porte-Saint-Martin,Mairie du 10ème,Porte-Saint-Martin,48.87208945,2.357582599
Arts-et-Métiers,Square Emile - Chautemps,Arts-et-Métiers,48.86743372,2.353635728
Mail,Montmartre - Etienne Marcel,Mail,48.86502195,2.34506844
Enfants-Rouges,Mairie du 3ème,Enfants-Rouges,48.86446178,2.361762822
Archives,Saint-Gilles - Turenne,Archives,48.85815896,2.364714992
Mail,Réaumur - Montmartre,Mail,48.868231,2.343826034
Porte-Saint-Denis,Strasbourg - Saint-Denis,Porte-Saint-Denis,48.86960164,2.354290858
Saint-Lambert,Franquet - Labrouste,Saint-Lambert,48.83287705,2.306762785
La Chapelle,Riquet - Marx Dormoy,La Chapelle,48.89021004,2.360175624
Gare,Pierre Joseph Desault,Gare,48.82110231,2.378775403
Père-Lachaise,Mairie du 20ème,Père-Lachaise,48.86530232,2.399066985
Grandes-Carrières,Carpeaux - Place Jacques Froment,Grandes-Carrières,48.8906542,2.3309428
Muette,Jean Bologne - Passy,Muette,48.85756689,2.280027395
