stationcode,name,quartier,latitude,longitude
17041,Guersant - Gouvion-Saint-Cyr,Ternes,48.882877751786,2.28766737081487
20143,Ramponeau - Belleville,Belleville,48.871031137596,2.37905685211397
17044,Porte de Saint-Ouen - Bessières,Epinettes,48.8979224085452,2.32851451022192
16138,Saint-Cloud - Hippodrome,Auteuil,48.8583409421007,2.25815176963806
8048,Marceau - Chaillot,Champs-Elysées,48.8688339498926,2.29899678379297
17008,Porte Pouchet-Bessières,Epinettes,48.8978765,2.3230632
10107,Gare du Nord - Hôpital Lariboisière,Saint-Vincent-de-Paul,48.881949,2.352339
11027,Saint-Ambroise - Parmentier,Saint-Ambroise,48.8621478445476,2.37723480910063
11002,Roquette - Thiéré,Roquette,48.8550793057951,2.37336863187215
16039,Exelmans - Versailles,Auteuil,48.8409749109197,2.26439025253057
18028,Championnet - Vauvenargues,Grandes-Carrières,48.8940187474457,2.3319872841239
7101,Raspail - Chomel,Saint-Thomas-d'Aquin,48.8522331643031,2.32665807008743
20115,Louis Lumière - Porte de Bagnolet,Charonne,48.8643113600001,2.41052102297544
19018,Cité de la Musique,Pont-de-Flandre,48.8887965564874,2.39258119319222
11105,Parmentier - République,Saint-Ambroise,48.8644954,2.3750124
19022,Marché Secrétan,Combat,48.8812549637948,2.37346328794956
12001,Bastille - Biscornet,Quinze-Vingts,48.8513557795789,2.369220033288
8102,Lamennais - Washington,Faubourg-du-Roule,48.873529900265,2.30344489216804
17027,Place du Maréchal Juin - Péreire,Plaine de Monceaux,48.885263,2.298286
10020,Chabrol - d'Hauteville,Porte-Saint-Denis,48.8770183880333,2.35131796449423
18138,Ney - Charles Hermite,La Chapelle,48.8987480397753,2.36457545310259
1022,Danielle Casanova - Place Vendôme,Place-Vendôme,48.8682664982233,2.33048390597105
14125,Dareau - Broussais,Parc-de-Montsouris,48.8307758,2.3361804
20004,Commandant l'Herminier - Gallieni,Charonne,48.8470405526031,2.41604536771774
17001,Guy Môquet - Saint-Ouen,Epinettes,48.892777719024,2.32703357934952
13027,Mazagran - Pierre de Coubertin,Maison-Blanche,48.8162186402604,2.34422687441111
6008,Assas - Luxembourg,Notre-Dame-des-Champs,48.8437344687794,2.33342838187589
13032,Italie - Jardin Joan Miro,Maison-Blanche,48.8199091404576,2.35929485410452
9004,Gérando - Rochechouart,Rochechouart,48.8829434084496,2.34648462384939
4020,Place Edmond Michelet,Saint-Merri,48.8601348905419,2.35006369650364
12018,Saint-Mandé - Fabre d'Eglantine,Picpus,48.8453579,2.3965022
15036,Croix Nivert - Square Saint-Lambert,Grenelle,48.8430515215905,2.29520045220852
9111,Victoire - Laffitte,Chaussée-d'Antin,48.8751437349467,2.33811850514438
1012,Jean-Jacques Rousseau - Deux Ecus,Halles,48.8629780597213,2.34146352857351
13038,Choisy - Malmaisons,Gare,48.8219197029561,2.36334688340709
1024,Coquillière - Louvre,Halles,48.8637959096623,2.34257362782955
17020,Jouffroy d'Abbans - Malesherbes,Plaine de Monceaux,48.8850134,2.3070717
17038,Grande Armée - Brunel,Ternes,48.876116,2.288124
8053,Place Georges Guillaumin,Faubourg-du-Roule,48.8747502039566,2.30177143532599
7020,Champ de Mars - Cler,Gros-Caillou,48.8566915501153,2.30664677917957
19120,Carducci - Place Hannah Arendt,Combat,48.8774366815158,2.38607436418533
10024,Buisson Saint-Louis - Saint-Maur,Hôpital-Saint-Louis,48.8717468493029,2.37225283287899
15110,Place Robert Guillemard,Javel,48.8361917280667,2.28112671600864
1122,Pont-Neuf - Quai du Louvre,Saint-Germain-l'Auxerrois,48.8582958982873,2.34237145632505
14136,Auguste Cain - Jean Moulin,Petit-Montrouge,48.8257702892757,2.32104152441025
10014,Marseille - Beaurepaire,Porte-Saint-Martin,48.871624306963,2.36392650827383
12009,Charenton - Diderot,Quinze-Vingts,48.8461714611871,2.37930681556463
12027,Montgallet - Charenton,Picpus,48.8426477787005,2.38616492781374
13045,Jean Colly - Tolbiac,Gare,48.8278172915978,2.37054906785488
7009,Assemblée Nationale,Invalides,48.8614110146519,2.32012141852077
16026,Ranelagh - Mozart,Muette,48.8554533455268,2.27019153535366
8012,Batignolles - Place de Clichy,Batignolles,48.8834745357567,2.32649311423302
15038,Place Adolphe Cherioux - Vaugirard,Saint-Lambert,48.8395944280046,2.30106577277184
16021,François Ponsard - La Muette,Muette,48.8583666,2.2744515
8019,Naples - Rome,Europe,48.8799607008462,2.32135869562626
4110,Neuve Saint-Pierre - Beautreillis,Arsenal,48.8535535143965,2.36391227692366
17022,Pereire - Place de Wagram,Plaine de Monceaux,48.8870706075812,2.30411112453146
4011,Hôtel de Ville - Pont-Marie,Saint-Gervais,48.8538996455274,2.35694725066423
17016,Brochant - Square des Batignolles,Batignolles,48.8881869858103,2.31686114315115
19031,Manin - Crimée,Amérique,48.8831217743719,2.38636706024408
2110,Jeûneurs - Mulhouse,Mail,48.868997,2.346925
20103,Le Vau - Maurice Bertaux,Saint-Fargeau,48.8680343904319,2.41103061245363
18142,Jessaint - Marx Dormoy,Goutte-d'Or,48.8848454310636,2.35893040895462
19025,Botzaris - Crimée,Combat,48.8795969869018,2.38879133374771
20039,Belleville - Couronnes,Belleville,48.8688310828774,2.38098621368408
17039,Place Saint-Ferdinand,Ternes,48.8781552978974,2.28851804786494
16030,Place de Barcelone - Mirabeau,Auteuil,48.8476230273642,2.27356642484665
16020,Place de la Porte de Passy,Auteuil,48.8573410954708,2.26441655388271
10018,Square Alban Satragne,Porte-Saint-Denis,48.8753405483956,2.35588476061821
11021,Charonne - Pierre Bayle,Père-Lachaise,48.8584450542619,2.39039812238911
8037,Monceau - Malesherbes,Europe,48.8795079,2.3145456
17108,Bessières - Porte de Clichy,Epinettes,48.8961176245147,2.31790903955698
1021,Halles - Bourdonnais,Halles,48.8604489925747,2.34601624310017
9006,Dunkerque - Trudaine,Rochechouart,48.8821516677338,2.34632536768913
15039,Abbé Groult - Convention,Saint-Lambert,48.8359692786607,2.30206403950935
8116,Champs-Elysees - Bassano,Champs-Elysées,48.8718118078161,2.30023898184299
9007,Condorcet - Turgot,Rochechouart,48.8798515578909,2.34523236751556
15008,Sèvres - Lecourbe,Necker,48.8447677,2.3110086
1006,Grande Truanderie - Saint-Denis,Halles,48.8626302,2.3498075
16013,Mairie du 16ème,Muette,48.863936848472,2.27659530937672
6104,Herschel - Observatoire,Odéon,48.8434237622192,2.33766451478004
18047,St-Ouen - Lamarck,Epinettes,48.8910830402956,2.32673569483929
18021,Marcadet - Ramey,Clignancourt,48.890875,2.3449019
20013,Alexandre Dumas - Place de la Réunion,Charonne,48.8553371074205,2.39977036876463
11018,Saint-Maur - République,Saint-Ambroise,48.8641858614551,2.37831741571426
12039,Général Michel Bizot - Claude Decaen,Picpus,48.8348126298254,2.4009277881277
13007,Le Brun - Gobelins,Salpêtrière,48.8350927878239,2.35346813513375
6021,Beaux-Arts - Bonaparte,Saint-Germain-des-Prés,48.8564519853958,2.3348518833518
7004,Raspail - Varenne,Saint-Thomas-d'Aquin,48.8531478165449,2.3263905197382
11113,Richard Lenoir - Republique,Folie-Méricourt,48.8667175,2.3692541
19044,Grands Moulins de Pantin,Pont-de-Flandre,48.8973836972023,2.39599853754044
18046,Etienne Jodelle - Saint Ouen,Grandes-Carrières,48.8879401639469,2.32612442031434
18009,Jean-François Lépine - Stephenson,Goutte-d'Or,48.8861146679681,2.35685562752927
15034,Lakanal - Commerce,Grenelle,48.8444246278654,2.29405917227268
9032,Mathurins - Auber,Chaussée-d'Antin,48.8729888407436,2.32949842122764
20111,Villiers de l'Isle Adam - Pyrénées,Père-Lachaise,48.867362,2.396222
11115,Montreuil - Gonnet,Sainte-Marguerite,48.8505005649211,2.38908562878644
19115,Porte de la Villette,Pont-de-Flandre,48.8983519654848,2.38615013659
12032,Porte Dorée,Bel-Air,48.8354337,2.4077132
16004,Université Paris Dauphine,Porte-Dauphine,48.8707078399854,2.27486561983824
6030,Assas - Vaugirard,Notre-Dame-des-Champs,48.8482741113976,2.3292413726449
19127,Aubervilliers - Curial,Villette,48.8908830522755,2.36885793507099
14112,Méchain - Faubourg Saint-Jacques,Montparnasse,48.8358677209949,2.33798034198275
1120,Lavandieres Sainte Opportune - Rivoli,Halles,48.8592797024761,2.34662175178528
8001,Petit Palais,Champs-Elysées,48.8667692,2.3157655
12161,Diderot - Reuilly,Picpus,48.8472084560607,2.38612733781338
15107,Palais des Sports,Saint-Lambert,48.8334685174258,2.28587206453085
7016,Surcouf - Université,Gros-Caillou,48.8612730162781,2.30945355091418
14006,Saint-Jacques - Tombe Issoire,Montparnasse,48.8332063305389,2.33691081404686
6027,Blaise-Desgoffe - Vaugirard,Notre-Dame-des-Champs,48.8461288777471,2.32426721602678
8049,Georges V - François 1er,Champs-Elysées,48.8704224715861,2.30106979608536
9015,Lamartine - Faubourg Montmartre,Faubourg-Montmartre,48.8766139828908,2.33976569026709
12033,François Truffaut - Saint Emilion,Bercy,48.8337235434481,2.38660190327143
13117,Stade Georges Carpentier,Gare,48.8204824383814,2.36683219671249
17029,Pierre Demours - Laugier,Ternes,48.8813072,2.294846
12105,Bercy - Villot,Bercy,48.8417950090269,2.37678501848156
17033,Carnot - Général Lanrezac,Ternes,48.8754438707356,2.29382429350357
18027,Damrémont - Ordener,Grandes-Carrières,48.8934003929819,2.3362665239128
4001,Arcole - Notre-Dame,Notre-Dame,48.8538835413277,2.34937973320484
4002,Marché aux fleurs,Notre-Dame,48.8552581153914,2.34737545251846
5115,Buffon - Jardin des Plantes,Jardin-des-Plantes,48.8426684661049,2.36185871064663
16105,Crevaux - Bugeaud,Porte-Dauphine,48.8708094286695,2.28114900769185
16042,Murat - Porte de Saint-Cloud,Auteuil,48.837508626213,2.25776519626379
5122,Saint-Michel - Luxembourg,Val-de-Grâce,48.845,2.339787
20029,Frères Flavien - Porte des Lilas,Saint-Fargeau,48.8780992764359,2.41104629853209
3009,Temple - Haudriettes,Sainte-Avoie,48.8616368802116,2.35669602064581
3003,Fille du Calvaire - Turenne,Enfants-Rouges,48.8621050541256,2.3649600148201
16044,Porte de Saint Cloud - Parc des Princes,Auteuil,48.8386627570658,2.25251644849777
2009,Filles Saint-Thomas - Place de la Bourse,Vivienne,48.8688998908531,2.33975438452035
2008,Mairie du 2ème,Vivienne,48.8672190355135,2.3404625437747
12164,Stade Pershing,Picpus,48.8290634279492,2.45906923653071
12157,Fabre d'Eglantine - Place de la Nation,Picpus,48.8471116,2.3956204
18112,Arthur Ranc - Hôpital Bichat,Grandes-Carrières,48.8978712500682,2.33352184295654
19118,Simon Bolivar - Henri Turot,Combat,48.876887,2.374454
11111,Léon Frot - Charonne,Sainte-Marguerite,48.8549638003352,2.38721708537201
20110,Gambetta - Tourelles,Saint-Fargeau,48.8753379022642,2.4059921130538
20020,Pyrénées - Charles Renouvier,Père-Lachaise,48.8609593322922,2.40042185204211
15045,Porte de la Plaine,Saint-Lambert,48.8280516960598,2.29242771863937
6028,Quatre Vents - Carrefour de l'Odéon,Odéon,48.8517513744589,2.33816169513405
16023,Passy - Place du Costa Rica,Muette,48.8584893,2.2839655
16104,Paul Valery - Victor Hugo,Chaillot,48.8713740608016,2.28871285915375
13037,Ivry - Baudricourt,Gare,48.824695995415,2.36310607357747
17048,De Toqueville - Terrasse,Plaine de Monceaux,48.882428,2.314002
14013,Liard - Amiral Mouchez,Parc-de-Montsouris,48.8214169,2.342167
16110,Octave Feuillet - Albéric Magnard,Muette,48.8610690294953,2.27302830666304
12151,Gare de Lyon - Place Louis Armand,Quinze-Vingts,48.8455150897939,2.3726498446286
19026,Place de Rhin et Danube,Amérique,48.8819276586177,2.39258676767349
8034,Berri - Haussmann,Faubourg-du-Roule,48.8747460473571,2.30829533189535
16122,Route de la Muette - Porte de Neuilly,Porte-Dauphine,48.8798926,2.2587671
13002,Arago - Glacière,Croulebarbe,48.8348605477577,2.34457705243221
11035,Parmentier - Abel rabaud,Folie-Méricourt,48.8692127383611,2.37168882124071
14021,Place de la Porte de Châtillon,Petit-Montrouge,48.8242469,2.3186306
17037,Bayen - Pereire,Ternes,48.8818044090797,2.29210887104273
16018,Flandrin - Henri Martin,Porte-Dauphine,48.8643275,2.2724174
7006,Quai Voltaire,Saint-Thomas-d'Aquin,48.858942986179,2.33141820471457
20023,Pelleport - Belgrand,Saint-Fargeau,48.8650008184765,2.40398083637749
15031,Théâtre - Lourmel,Grenelle,48.8482070397636,2.28986587375402
20137,Borrégo - Gambetta,Saint-Fargeau,48.8733049704553,2.40141458809376
19023,Manin - Simon Bolivar,Combat,48.8764996541268,2.3794073625991
2010,Uzès - Montmartre,Mail,48.8707909802407,2.34310101717711
18014,Léon - Doudeauville,Goutte-d'Or,48.8883242184522,2.3535733726386
14128,Gergovie - Vercingétorix,Plaisance,48.8345341388399,2.31315454742618
12125,Pyramide - Parc Floral,Bel-Air,48.837442,2.440452
10012,Vinaigriers - Magenta,Porte-Saint-Martin,48.8731167,2.3593052
12101,Charenton - Prague,Quinze-Vingts,48.848175129981,2.37635844943123
20022,Porte de Bagnolet,Saint-Fargeau,48.864707139123,2.40834463734961
20104,Louis Lumière,Charonne,48.8621619807001,2.41112578185621
17019,Phalsbourg - Villiers,Plaine de Monceaux,48.8824230790095,2.30904534459114
4108,Quai de Béthune - Pont de la Tournelle,Notre-Dame,48.8509743319403,2.35630720853805
15111,Olivier de Serres - Leriche,Saint-Lambert,48.8346022171521,2.29574829339981
14022,Didot - Mariniers,Plaisance,48.8265054361311,2.31313619827167
19012,Lally-Tollendal - Armand Carrel,Villette,48.8827006622107,2.37471755594015
18015,Custine - Ramey,Clignancourt,48.8887358969471,2.34695266932249
12165,Champs de Manoeuvre - Cartoucherie,Bel-Air,48.834071215847,2.44561329737915
6026,Saint-Placide - Cherche Midi,Notre-Dame-des-Champs,48.8490535919234,2.32531797140837
17021,Jouffroy d'Abbans - Villiers,Plaine de Monceaux,48.8842155470374,2.30565335601568
5003,Le Goff - Gay-Lussac,Val-de-Grâce,48.8461024009786,2.34122078865766
11022,Roquette - Auguste Laurent,Roquette,48.8580019060234,2.38179770265078
20012,Buzenval - Vignoles,Charonne,48.8538581716876,2.40000408142805
14009,Tombe Issoire - René Coty,Parc-de-Montsouris,48.830512876709,2.3343613743782
16116,George Sand - Jean de La Fontaine,Auteuil,48.8498691876412,2.2682573875257
11029,Ménilmontant - Oberkampf,Saint-Ambroise,48.8666176586814,2.38301344041578
15114,Pasteur - Cotentin,Necker,48.8389284,2.316356
8003,Galilée - Vernet,Champs-Elysées,48.8717158786973,2.29854449629784
14025,Jacquier - Didot,Plaisance,48.8295333629228,2.31817927211523
6003,Saint-Sulpice,Notre-Dame-des-Champs,48.8516538317842,2.3308077827096
5005,Gay Lussac - Saint-Jacques,Val-de-Grâce,48.8447302561321,2.34192394486641
8017,Rocher - Laborde,Europe,48.8759024071265,2.32261631637812
14138,Porte de Vanves,Plaisance,48.8280128494451,2.30568788945675
14106,Marc Sangnier - Porte de Vanves,Plaisance,48.8252186835567,2.31071166694164
17105,Place Madeleine Daniélou,Ternes,48.883498,2.282015
17042,Porte Maillot - Pereire,Ternes,48.877775,2.284444
8025,Miromesnil - La Boétie,Madeleine,48.8737224129165,2.31584809720516
15013,Volontaire - Lecourbe,Necker,48.8435137879902,2.3065522313118
20121,Boyer - Ménilmontant,Père-Lachaise,48.8688951626791,2.39198241456346
11036,Jules Ferry - Faubourg du Temple Paris,Folie-Méricourt,48.868397,2.3678933
18110,Departement - Pajol,La Chapelle,48.8866748497302,2.36136116087437
16121,Jardin d'Acclimatation,Porte-Dauphine,48.8787722425105,2.27077223360538
5021,Jussieu - Fossés Saint-Bernard,Saint-Victor,48.8471855100235,2.35348585993052
16129,Ceinture du Lac Inferieure - Saint-Cloud,Muette,48.8621807093314,2.26178716868162
13104,Gare d'Austerlitz - Quai Saint-Bernard,Salpêtrière,48.84369030864,2.3657163977623
18045,Pierre Ginier - Clichy,Grandes-Carrières,48.8867667,2.326228
12011,Charenton - Place du Col Bourgoin,Quinze-Vingts,48.8448673195541,2.38257893505445
15055,Vasco de Gama,Saint-Lambert,48.8367178346626,2.2836640856508
18032,Porte de Clignancourt,Clignancourt,48.897488,2.343996
6107,Place Alphonse Deville,Notre-Dame-des-Champs,48.8501882626619,2.32759617269039
17123,Clichy - Lechapelais,Grandes-Carrières,48.8993920670626,2.33194202184677
15070,Balard - Montagne de la Fage,Javel,48.8385074033335,2.27828711271286
16029,Maison de Radio - France,Auteuil,48.8513288643406,2.27778553962708
13122,Parc de Choisy,Gare,48.8281562515749,2.35851353290333
13103,Hôpital Pitié Salpêtrière,Salpêtrière,48.8377016,2.3604946
18135,Ney - Porte de Montmartre,Grandes-Carrières,48.897918,2.3364872
1016,Thérèse - Opéra,Palais-Royal,48.866483514509,2.33443342122379
13113,Vistule - Choisy,Maison-Blanche,48.8236554366061,2.36157238483429
12129,Bois de Vincennes - Porte Jaune,Bel-Air,48.8387512466895,2.46054891496897
8011,Clapeyron - Moscou,Europe,48.8807881951412,2.32481505721807
19036,Hôpital Robert Debré,Amérique,48.8800522220089,2.4008650346327
15125,Parc Suzanne Lenglen,Javel,48.8332506905379,2.27654032409191
15072,Place Fernand Forest,Grenelle,48.8492691438359,2.28186316788197
17023,Porte d'Asnières,Batignolles,48.8903581761049,2.30362862348557
10151,Gare du Nord - Faubourg Saint-Denis,Saint-Vincent-de-Paul,48.8796127655036,2.35684029757977
11033,Bréguet - Sabin,Roquette,48.8569316782574,2.37067494621054
17009,Paul Bodin - Clichy,Epinettes,48.8923961461893,2.31714259833097
20034,Sorbier - Ménilmontant,Père-Lachaise,48.8685423956607,2.38977212458849
13051,Halle Freyssinet - Parvis Alan Turing,Gare,48.8328468144708,2.3711421713233
4103,Archives - Rivoli,Saint-Merri,48.8573467074435,2.35397670418024
4014,Blancs-Manteaux - Archives,Saint-Merri,48.8594180070304,2.35594712197781
18136,Poulet - Barbès,Clignancourt,48.887148,2.349064
19111,Cesaria Evora - Rosa Parks,Pont-de-Flandre,48.8971767282504,2.37451739609241
1116,Ventadour - Opéra,Palais-Royal,48.866810653323,2.33438844825187
16139,Suresnes - Muette à Neuilly,Porte-Dauphine,48.868716,2.266586
2006,Place des Victoires,Mail,48.8660354,2.3420333
19006,Mathis - Flandre,Villette,48.8906429898976,2.37625546753407
8052,Balzac - Champs Elysées,Faubourg-du-Roule,48.8726996396213,2.3001953959465
13036,Olympiades,Gare,48.8267646651995,2.3650860786438
16025,Jean de la Fontaine - Boulainvilliers,Auteuil,48.8526479146165,2.27586641907692
18101,Championnet,Clignancourt,48.8953643,2.3498166
6004,Regard - Rennes,Notre-Dame-des-Champs,48.847385404956,2.32685554772615
11016,Philippe-Auguste,Sainte-Marguerite,48.8518534882646,2.3932945355773
5105,Geoffroy-Saint-Hilaire - Saint-Marcel,Jardin-des-Plantes,48.8390782642497,2.35687734066973
14014,Jourdan - Stade Charléty,Parc-de-Montsouris,48.8194283333695,2.34333537518978
14036,Boulard - Daguerre,Montparnasse,48.8344236782509,2.32945896685123
5022,Boulangers - Cardinal Lemoine,Saint-Victor,48.8462904,2.3521495
6001,Institut de France,Saint-Germain-des-Prés,48.8576156785647,2.33583135303774
17004,Legendre - Clichy,Epinettes,48.8889616185588,2.32252897509438
19101,Square Simon Bolivar,Combat,48.8750898883217,2.38263040781021
13001,Port-Royal - Hôpital du Val-de-Grâce,Croulebarbe,48.8376682728114,2.34481383466071
19024,Botzaris - Parc des Buttes Chaumont,Combat,48.877951,2.381464
15021,Joseph Liouville - Croix Nivert,Necker,48.8448354712444,2.29750849306583
5106,Cujas - Saint-Michel,Sorbonne,48.8481913485843,2.34183165485398
19016,Hautpoul - Jean Jaurès,Amérique,48.8863936794358,2.38654145443545
11007,Jean Macé - Faidherbe,Sainte-Marguerite,48.8533754842596,2.38286208361387
18020,Francoeur - Marcadet,Grandes-Carrières,48.8910412326166,2.34001458544203
10023,Gare de l'Est - Verdun,Hôpital-Saint-Louis,48.8761560542715,2.36091490832055
20036,Ménilmontant - Pelleport,Père-Lachaise,48.8706826338446,2.39895960233165
17046,Mac-Mahon - Brey,Ternes,48.8775320841302,2.29451253605293
18049,Porte d'Aubervilliers,La Chapelle,48.8985966194238,2.36897226423025
16015,Bassano -  Iéna,Chaillot,48.8681445104821,2.29614960098593
14116,Romain Rolland,Petit-Montrouge,48.8202152296628,2.32341442344183
18019,Square Raymond Souplex,Grandes-Carrières,48.8918372147891,2.3354261031659
5019,Poissy - Saint-Germain,Saint-Victor,48.8496964942701,2.35296852886677
6031,Pierre Sarrazin - Saint-Michel,Monnaie,48.8509081463978,2.34213072806597
12154,Square Georges Melies,Bel-Air,48.8407023921308,2.40966774523258
19021,Mairie du 19ème,Combat,48.8825626424796,2.38126248121262
20045,Louis Ganne - Davout,Charonne,48.8633872069261,2.40972574800253
8032,Matignon - Faubourg Saint-Honoré,Madeleine,48.8714785911673,2.31397792696953
13110,Moulin de la Pointe,Maison-Blanche,48.8209294605145,2.35631793737411
18114,Véron - Lepic,Grandes-Carrières,48.8852612339525,2.33455985784531
7024,Rapp - Place du Général Gouraud,Gros-Caillou,48.8581028851069,2.30040729045868
19113,Pré Saint-Gervais - Lilas,Amérique,48.8778706269881,2.39590734243393
11031,Jacquard - Ternaux,Saint-Ambroise,48.8646605,2.373162
13048,Wurtz - Tolbiac,Maison-Blanche,48.8263119562101,2.34458595514297
7111,Ecole Militaire - Place Joffre,Gros-Caillou,48.8520602035828,2.30179935693741
13121,Bruneseau - Quai d'Ivry,Gare,48.8249456375829,2.38856613636017
15043,Brancion - Lefebvre,Saint-Lambert,48.8290022278557,2.30143103816341
16003,André Maurois - Joseph et Marie Hackin,Porte-Dauphine,48.8778983,2.2789591
8549,George V - Christophe Colomb,Champs-Elysées,48.8704294,2.3011638
15057,Lucien Bossoutrot - Général Martial Vallin,Javel,48.8369560463109,2.27410722523928
15005,Place Jacques et Thérèse Tréfouël,Necker,48.8427264983166,2.31256574392319
13044,Place Jeanne d'Arc,Gare,48.829575,2.369126
9024,Taitbout - La Fayette,Chaussée-d'Antin,48.8733298891997,2.33526259660721
15018,Dutot - Place Alleray,Saint-Lambert,48.8368260917659,2.30717010955777
13018,Bruant - Vincent Auriol,Salpêtrière,48.8348484529294,2.36682649962709
16037,Molitor - Michel-Ange,Auteuil,48.845182081538,2.26211277356597
2021,Cléry - Montmartre,Mail,48.867458,2.3445211
3004,Place de la République - Temple,Enfants-Rouges,48.8672112018589,2.36354643705454
12166,Parc Floral du Bel Air,Bel-Air,48.8399190565604,2.43838023450143
9019,Victor Massé - Jean-Baptiste Pigalle,Saint-Georges,48.8811043724,2.33669556677341
18016,Francoeur - Caulaincourt,Clignancourt,48.8899944409612,2.34252970665693
19117,Euryale Dehaynin - Loire,Villette,48.8862489173048,2.3774591088295
15050,Dominique Pado - Croix Nivert,Saint-Lambert,48.83656,2.28976
5033,Saint-Séverin - Saint-Michel,Sorbonne,48.8527313054881,2.34409276396036
7023,Bourdonnais - Tour Eiffel,Gros-Caillou,48.860897797941,2.29559959844703
8046,Marceau - Président Wilson,Champs-Elysées,48.8652359,2.3002513
15120,Colonel Pierre Avia,Javel,48.8296843300915,2.27534258685029
11025,Froment - Bréguet,Roquette,48.8570414504784,2.37289470306807
6029,Vaugirard - Monsieur le Prince,Odéon,48.8489514416142,2.34113294631243
7025,Octave Gréard - Tour Eiffel,Gros-Caillou,48.8565029776956,2.29317875432888
9028,Moncey - Blanche,Saint-Georges,48.8800658747415,2.33108103275299
10008,Cité Riverin - Château d'Eau,Porte-Saint-Martin,48.8707024235543,2.35873986390084
11039,Richard Lenoir - Jean-Pierre Timbaud,Folie-Méricourt,48.8658042766864,2.36933707496693
17013,Legendre - Dulong,Batignolles,48.8853251694029,2.31642376631498
9021,Saint Georges - d'Aumale,Saint-Georges,48.8777863959967,2.33742982149124
12013,Montgallet - Reuilly,Picpus,48.844291,2.3896481
14117,Gare Montparnasse - René Mouchotte,Plaisance,48.8392038432924,2.32088394463062
20132,Réunion - Avron,Charonne,48.8525667520338,2.40392806870812
16006,Lauriston - Copernic,Chaillot,48.86926,2.289918
10165,Gare de l'Est - Place du 11 Novembre 1918,Saint-Vincent-de-Paul,48.876327,2.3585464
19039,Edouard Pailleron - Simon Bolivar,Combat,48.8797988605,2.3748392611742
16032,Eglise d'Auteuil,Auteuil,48.8474984177169,2.26848387135299
17047,Courcelles - Pierre Demours,Plaine de Monceaux,48.8837697332735,2.29858466343129
5121,Square René Viviani - Montebello,Sorbonne,48.8519048914064,2.34784215688705
10033,Gare du Nord - Saint-Vincent de Paul,Saint-Vincent-de-Paul,48.8809557416478,2.35243051483852
8051,Batignolles - Rome,Europe,48.8818233705668,2.32025898993015
2001,Greneta - Sebastopol,Bonne-Nouvelle,48.8652423332281,2.35166698694229
2101,Bachaumont - Montmartre,Mail,48.8661739507914,2.34497755765915
13515,Auguste Blanqui - Glacière,Croulebarbe,48.8311516029644,2.34382219612598
10004,Metz - Faubourg Saint-Denis,Porte-Saint-Denis,48.870893,2.353521
16115,Raffet - Montmorency,Auteuil,48.85258670812,2.2629252456152
9102,Londres - Place d'Estienne d'Orves,Saint-Georges,48.876693805757,2.33053620904684
10021,Marché Saint-Quentin,Saint-Vincent-de-Paul,48.8773560576523,2.35451144563739
6022,Marché Saint-Germain,Odéon,48.8516562585528,2.33550030738115
11011,Richard Lenoir - Voltaire,Saint-Ambroise,48.8616427387798,2.37274914979935
20105,Benoît Frachon - République,Charonne,48.8523072901432,2.4156054854393
16036,Porte Molitor,Auteuil,48.8452476351143,2.25690152496099
12015,Place de la Nation - Picpus,Bel-Air,48.8468216815476,2.40011304616928
9037,Parme - Clichy,Saint-Georges,48.8812664242266,2.32819709345057
8028,Arsène Houssaye - Champs-Elysées,Faubourg-du-Roule,48.8734092762673,2.29779046028852
1014,Rivoli - Musée du Louvre,Palais-Royal,48.8636463685195,2.33409583568573
1026,Place du Lieutenant Henri Karcher,Halles,48.8634908717245,2.34006710350513
1008,Les Halles - Saint-Eustache,Halles,48.8636269590168,2.34262391924858
20140,Paganini - Davout,Charonne,48.85135,2.412021
6020,Place Saint-André des Arts,Monnaie,48.852886173881,2.34265442937613
16107,Benjamin Godard - Victor Hugo,Porte-Dauphine,48.865983,2.275725
15026,Bir Hakeim,Grenelle,48.8538440543335,2.28970534822202
2017,Caire - Dussoubs,Bonne-Nouvelle,48.8678534211186,2.34936431050301
20112,Jourdain - Place des Grandes Rigoles,Belleville,48.8740311372717,2.38959476351738
11026,Chemin Vert - Saint-Maur,Roquette,48.8611246140736,2.38129902631044
15033,Place Violet,Grenelle,48.844878938365,2.29057565331459
5114,Claude Bernard - Arbalète,Val-de-Grâce,48.839766769782,2.34751090407372
11114,Ledru-Rollin - Charonne,Roquette,48.8534585560724,2.37724635819471
14139,Pierre Larousse - Raymond Losserand,Plaisance,48.8305956423188,2.31191832572222
18113,Lepic - Armée d'Orient,Grandes-Carrières,48.8875364038142,2.33430773019791
8013,Marignan - Champs-Elysées,Champs-Elysées,48.8694956612324,2.30661381390031
9026,Jean-Baptiste Pigalle - La Bruyere,Saint-Georges,48.8793982644772,2.33370917333728
16027,Mozart - Jasmin,Auteuil,48.8528612487169,2.26848357065151
18017,Caulaincourt - Place Constantin Pecqueur,Grandes-Carrières,48.8896779050281,2.33817871442611
17102,Alfred Roll - Berthier,Plaine de Monceaux,48.8878085705287,2.30009529817631
20201,Eugène Reisz - Davout,Charonne,48.856525822569,2.41053133826607
2013,Favart - Italiens,Vivienne,48.871446353921,2.33829010585079
17116,Reims - Porte d'Asnières,Plaine de Monceaux,48.891834448211,2.30014465995486
11034,Parmentier - Fontaine au Roi,Folie-Méricourt,48.8678767055174,2.37270597867147
5030,Sorbonne - Ecoles,Sorbonne,48.8496865661909,2.34349966049194
8029,Place du Canada,Champs-Elysées,48.8653462693627,2.31019378796476
12120,Lac Daumesnil - Saint-Maurice,Picpus,48.8277455574332,2.41836547851562
12010,Daumesnil - Picpus,Picpus,48.8374688,2.401765
4107,Beaumarchais - Pas de la Mule,Arsenal,48.8555805070491,2.36843336734306
8101,Londres - Amsterdam,Europe,48.878034461504,2.32648354096942
10110,Louis Blanc - Jemmapes,Hôpital-Saint-Louis,48.8793307552973,2.36844856292009
10037,Quai de Valmy,Hôpital-Saint-Louis,48.8812695157943,2.36818604171276
13039,Ivry - Simone Weil,Gare,48.8232839320308,2.36590951681137
20108,Jardin de l'Hospice Debrousse,Charonne,48.861451061938,2.40568600594997
15030,Emeriau - Beaugrenelle,Grenelle,48.8479124971494,2.28430598974228
18038,Rond-Point de la Chapelle,La Chapelle,48.8951266093141,2.3599711060524
13009,Auguste Blanqui - Corvisart,Croulebarbe,48.8300989,2.3502726
17106,Berthier - Porte de Clichy,Batignolles,48.8943023236226,2.31256279562966
13025,Place de Rungis,Maison-Blanche,48.8224559476497,2.34738272948295
1003,Saint-Denis - Rivoli,Halles,48.8590593408417,2.34769430011511
8027,Mairie du 8ème,Europe,48.877932,2.318264
1020,Cambon - Rivoli,Place-Vendôme,48.866143390992,2.32518006471366
7012,Cité Vaneau,Invalides,48.8542210666207,2.31961492449045
16102,Pergolèse - Marbeau,Porte-Dauphine,48.873568706869,2.28151252252986
19010,Emile Reynaud - Porte de la Villette,Pont-de-Flandre,48.9009895363005,2.38870225846767
4012,Tiron - Rivoli,Saint-Gervais,48.8556922532328,2.35790580511093
10041,Gare du Nord - La Chapelle,Saint-Vincent-de-Paul,48.8841782872857,2.35610570758581
4018,Saint-Bon - Rivoli,Saint-Merri,48.8579996433149,2.35021728097635
14134,Château - Place de Catalogne,Plaisance,48.8368139281301,2.31866911053658
20142,Mûriers - Père Lachaise,Père-Lachaise,48.864130509668,2.39164982067019
20003,Pyrénées - Cours de Vincennes,Charonne,48.8477967799351,2.40617215633392
13006,Duméril - Jeanne d'Arc,Salpêtrière,48.8381516080866,2.3571084495564
8007,Rome - Provence,Madeleine,48.8742300555803,2.32557011172411
12040,Porte de Charenton,Picpus,48.8312401058564,2.39891074597836
5110,Lacépède - Monge,Saint-Victor,48.843892865319,2.35196638852358
7011,Las Cases - Bourgogne,Invalides,48.8590911047407,2.31856852769852
13118,Regnault - Patay,Gare,48.8243578221639,2.37706515938044
9038,Douai - Bruxelles,Saint-Georges,48.883207841228,2.33084499490285
1001,Quai de l'Horloge - Pont Neuf,Saint-Germain-l'Auxerrois,48.8570587391111,2.34179828394394
8036,Lisbonne - Monceau,Europe,48.8774556768138,2.30969422141951
9022,Rossini - Laffitte,Faubourg-Montmartre,48.8733462751051,2.33798086770167
20042,Pyrénées - Emmery,Belleville,48.872010281271,2.39203959703446
15067,Desaix - Edgar Faure,Grenelle,48.8528046049403,2.29307702985722
20131,Repos - Cimetière du Père Lachaise,Père-Lachaise,48.8593585235926,2.38961313668446
19029,Seine - Flandre,Villette,48.8867857414797,2.37461932003498
19013,Laumière - Petit,Combat,48.8846736853833,2.3800390586257
19005,Flandre - Riquet,Villette,48.8880132814484,2.37375959552292
15025,Dupleix - du Guesclin,Grenelle,48.8514791041337,2.29670953005552
11102,Alexandre Dumas - Voltaire,Sainte-Marguerite,48.8528886703649,2.38914764080955
19004,Quai de la Loire - Jean Jaurès,Villette,48.8833973385453,2.37107452298013
20043,Charonne - Avron,Charonne,48.8516026652216,2.39840304703793
19019,Petit - Manin,Amérique,48.8865068753433,2.39381554013084
17018,Parc Monceau,Plaine de Monceaux,48.8810779141286,2.30954926460981
20109,Haxo - Surmelin,Saint-Fargeau,48.8694370761222,2.40539657537972
9031,Provence - Chaussée d'Antin,Chaussée-d'Antin,48.8742844754207,2.33297651156431
18008,Square Léon,Goutte-d'Or,48.8866739678863,2.35320556908846
10010,Place Jacques Bonsergent,Porte-Saint-Martin,48.8709482185952,2.36120492219925
1117,Pont Neuf - Rivoli,Halles,48.8600898926173,2.34405755996704
15020,Mairie du 15ème,Saint-Lambert,48.8417762,2.2986539
10026,Gare de l'Est - Chateau Landon,Saint-Vincent-de-Paul,48.879305,2.362424
9013,Mairie du 9ème,Faubourg-Montmartre,48.8732671375829,2.34075344805276
13047,Boutroux - Porte de Vitry,Gare,48.822632,2.377738
19124,Alexander Fleming - Belvédère,Amérique,48.881790642003,2.40305993776427
14113,Santé - Arago,Montparnasse,48.8350765756206,2.34157372620449
16007,Longchamp - Place d'Iéna,Chaillot,48.8649172334339,2.29267481714487
12006,Gare de Lyon - Van Gogh,Quinze-Vingts,48.8438397856433,2.37044502403568
5034,Censier - Santeuil,Jardin-des-Plantes,48.8406589213852,2.35375240445137
20122,Vitruve - Davout,Charonne,48.8605316115449,2.40915928126265
4016,Lobau - Hôtel de Ville,Saint-Merri,48.8562118,2.3532536
14131,Jourdan - Monticelli,Petit-Montrouge,48.822032,2.329095
15004,Vaugirard - Pasteur,Necker,48.840408688035,2.3154367133975
19128,Quai de l'Oise - Aisne,Pont-de-Flandre,48.8906231,2.3833701
18044,Clichy - Douai,Grandes-Carrières,48.8841183188698,2.32872873544693
12038,Picpus - Louis Braille,Bel-Air,48.8399887889119,2.40052566855206
12035,Madagascar - Meuniers,Picpus,48.8346046447471,2.39706505089998
16005,Raymond Poincaré - Place Victor Hugo,Porte-Dauphine,48.87030612437,2.28507454142023
19110,Square Claude Bernard,Pont-de-Flandre,48.8987601621998,2.37532574683428
11112,Jules Vallès - Charonne,Sainte-Marguerite,48.8542843799353,2.38476745784283
5015,Epée de Bois - Mouffetard,Jardin-des-Plantes,48.8415086903888,2.35006671398878
18004,Place des Abbesses,Clignancourt,48.8845427261497,2.33868677169085
2015,Louis le Grand - Italiens,Gaillon,48.8705089372039,2.33405446193933
12020,Cours de Vincennes - Soult,Bel-Air,48.8469187615693,2.41052202880382
19129,Solitaires - Place des Fêtes,Amérique,48.876601,2.391769
11014,Place de la Nation - Taillebourg,Sainte-Marguerite,48.8488408,2.3973043
16017,Siam - La Pompe,Muette,48.8617203290273,2.27534656855531
15044,Dantzig - Lefebvre,Saint-Lambert,48.8301392158676,2.29593403637409
8039,Colisée - Champs-Elysées,Faubourg-du-Roule,48.8704753993874,2.30761907994747
12109,Mairie du 12ème,Bercy,48.8408553117634,2.38755494356155
14111,Cassini - Denfert-Rochereau,Montparnasse,48.8375258390673,2.33603540807962
10105,Mazagran - Bonne Nouvelle,Porte-Saint-Denis,48.870278,2.351281
9008,Tour d'Auvergne - Rodier,Rochechouart,48.879161,2.343698
10162,Alexandre Parodi - Quai de Valmy,Hôpital-Saint-Louis,48.8793594194253,2.36659616231918
15112,Vigée-Lebrun - Anselme Payen,Necker,48.8386839416284,2.31104224920273
15042,Henry Farman,Javel,48.8337243028055,2.27138545364141
8045,Place de la Reine Astrid,Champs-Elysées,48.8649209825384,2.30254918238593
15054,Lecourbe - Jean Maridor,Saint-Lambert,48.837963661476,2.28773921728134
16008,Galilée - Kléber,Chaillot,48.8674118657137,2.29078138011482
16108,Sablons - Georges Mandel,Porte-Dauphine,48.863875,2.28189
19032,Villette - Belleville,Combat,48.8726877314003,2.37646132707596
16136,Théophile Gautier - François Millet,Auteuil,48.8503482132064,2.27302998304367
19008,Flandre - Alphonse Karr,Pont-de-Flandre,48.89465,2.381868
10113,Parmentier - Hôpital Saint-Louis,Hôpital-Saint-Louis,48.8713798742566,2.36989638366668
17011,Fragonard - Porte de Clichy,Epinettes,48.894155633419,2.31438931077719
15122,Place Charles Vallin,Saint-Lambert,48.8355238120408,2.30259865522385
20120,Evariste Galois,Saint-Fargeau,48.8730875373447,2.41333801299334
20040,Parc de Belleville - Julien Lacroix,Belleville,48.8703459,2.3842214
13026,Place Jean Delay,Maison-Blanche,48.823316,2.354336
9117,Bellefond - Maubeuge,Rochechouart,48.8782553976447,2.34526421874762
12107,Diderot - Pierre Bourdan,Picpus,48.8476486207968,2.39025827497244
7008,Villersexel - Saint-Germain,Saint-Thomas-d'Aquin,48.8582970012176,2.32379347085953
15059,Parc André Citroën,Javel,48.8406399442967,2.27806180715561
7110,Quai Anatole France - Musée d'Orsay,Invalides,48.86121174057,2.32424609363079
16016,Paul Doumer - La Tour,Muette,48.8601161096266,2.28084048191105
10164,Claude Vellefaux - Sambre et Meuse,Hôpital-Saint-Louis,48.875022,2.370478
13030,Italie - Tolbiac,Maison-Blanche,48.8249801426222,2.35788499358615
14101,Gare Montparnasse - Edgar Quinet,Montparnasse,48.8414878510789,2.32332322828005
5014,Jean Calvin - Tournefort,Val-de-Grâce,48.8415885692578,2.34848957508802
8057,Hoche - Tilsitt,Faubourg-du-Roule,48.874836457837,2.2971323132515
13516,Glacière - Soeur Catherine Marie,Maison-Blanche,48.8295229894206,2.34357040375471
7109,Place Joffre - Frédéric le Play,Gros-Caillou,48.8537544869379,2.30442423373461
10019,Paradis - Hauteville,Porte-Saint-Denis,48.8749999546668,2.35227574019234
5007,Ecoles - Carmes,Sorbonne,48.8489044479894,2.34734863042831
8044,Alfred de Vigny - Place du Général Brocard,Europe,48.8783613836142,2.30525444822057
3010,Beaubourg - Michel-le-Comte,Sainte-Avoie,48.8625349418059,2.35431030392647
14132,Bézout - Général Leclerc,Petit-Montrouge,48.8288480450244,2.3285973072052
4009,Village Saint-Paul,Saint-Gervais,48.8526398666248,2.36073017120361
6007,Bréa - Raspail,Notre-Dame-des-Champs,48.8427384782578,2.3297942217634
12123,Château de Vincennes,Bel-Air,48.8442319325566,2.43920953770918
13024,Bobillot - Tolbiac,Maison-Blanche,48.8255961335041,2.35020417720079
15069,Félix Faure - Convention,Javel,48.841249336041,2.2883866008495
15024,Suffren - La Motte-Piquet,Grenelle,48.8508812309187,2.30121999979019
14004,Port Royal - Hôpital Cochin,Montparnasse,48.8383732338133,2.34071787446737
14035,Maine - Jean Zay,Plaisance,48.8379252638977,2.32254289090633
20005,Reynaldo Hahn - Lagny,Charonne,48.8492660436018,2.41233032884477
6005,Montparnasse -  Square Ozanam,Notre-Dame-des-Champs,48.8433105678217,2.32652429491281
13013,Saint-Marcel - Hôpital,Salpêtrière,48.839504424583,2.36098941702293
7003,Square Boucicaut,Saint-Thomas-d'Aquin,48.8512964336653,2.32506182044744
14108,Le Brix et Mesmin - Jourdan,Petit-Montrouge,48.8223409659341,2.32786165330247
19033,Cambrai - Benjamin Constant,Pont-de-Flandre,48.8959473685135,2.38113380224631
16118,Michel-Ange - Parent de Rosan,Auteuil,48.8405799236901,2.25841194391251
9001,Bellefond - Poissonnière,Rochechouart,48.8775989705071,2.34846375882626
12031,Gabriel Lamé,Bercy,48.8351212784276,2.38553456962109
15056,Place Balard,Javel,48.8363957364241,2.27841921150684
5004,Saint-Jacques - Val de Grâce,Val-de-Grâce,48.8417514,2.3413893
7002,Vaneau - Sèvres,Ecole-Militaire,48.8485632330594,2.32042182593455
10042,Enghien - Faubourg Poissonnière,Porte-Saint-Denis,48.8724200630531,2.34839523628281
9014,Faubourg Montmartre - La Fayette,Faubourg-Montmartre,48.8752545490534,2.34085366129875
5012,Estrapade - Ulm,Sorbonne,48.8451277282804,2.34545681703617
7102,Mairie du 7ème,Invalides,48.8577967,2.3192664
11004,Charonne - Faubourg Saint-Antoine,Sainte-Marguerite,48.8521919096957,2.37409327179194
11009,Boulets - Voltaire,Sainte-Marguerite,48.8521870562103,2.38903015851974
6013,Jacques Callot - Mazarine,Monnaie,48.8552801753319,2.33757432550192
17045,Place des Ternes,Ternes,48.8784386312265,2.2977277636528
14034,Ouest - Château,Plaisance,48.8361728601424,2.3193921439238
12029,Dugommier,Picpus,48.8388110488154,2.38965779542923
5119,Jussieu - Guy de la Brosse,Saint-Victor,48.845665,2.355653
14104,Boyer-Barret - Raymond Losserand,Plaisance,48.8332988023332,2.31733839958906
20113,Piat - Parc de Belleville,Belleville,48.8719562663553,2.38498139027809
15017,Place Falguière,Necker,48.8362997394185,2.3104464635253
11041,Square Saint-Ambroise,Saint-Ambroise,48.860934,2.375841
19038,Lassus - Delouvain,Amérique,48.8755044845996,2.38903273255185
20118,Orteaux - Mouraud,Charonne,48.8555864284787,2.40876290776467
18043,Clichy - Place Blanche,Saint-Georges,48.883601088297,2.33322378247976
10114,Granges aux Belles - Hôpital Saint-Louis,Hôpital-Saint-Louis,48.8747949948413,2.36666943698496
8026,Messine - Place Du Pérou,Europe,48.8754480339607,2.31550801901004
4013,Vieille du Temple - Francs Bourgeois,Saint-Gervais,48.8582564133658,2.35821794718504
13114,Nationale - Marcel Duchamp,Gare,48.8246374933714,2.36780147999525
14007,Ferrus - Saint-Jacques,Parc-de-Montsouris,48.8313878,2.3408563
19030,Melun - Jean Jaurès,Villette,48.8837796723475,2.37647742033005
18035,René Binet - Porte de Montmartre,Grandes-Carrières,48.8990510995085,2.33655340969563
10039,Sambre et Meuse - Villette,Hôpital-Saint-Louis,48.8744056662172,2.37380723799512
13010,Place d'Italie - Vincent Auriol,Salpêtrière,48.8314818744667,2.35675502923186
10152,Gare du Nord - Place de Valenciennes,Saint-Vincent-de-Paul,48.879089,2.354235
16009,Saint-Didier - Raymond Poincaré,Porte-Dauphine,48.8664231202096,2.28586349719241
8020,Batignolles - Beudant,Batignolles,48.8821640146638,2.31985297054052
15023,La Motte-Picquet - Grenelle,Grenelle,48.8485832133919,2.2993478178978
17003,Jacques Kellner - Saint-Ouen,Epinettes,48.8958094858029,2.32789740916414
9114,Faubourg Poissonnière - Dunkerque,Saint-Vincent-de-Paul,48.8808834454044,2.34993427991867
12007,Gare de Lyon - Chalon,Quinze-Vingts,48.8456661942023,2.3741452395916
15022,Emile Zola - Fondary,Grenelle,48.8470511431138,2.29534059762955
12026,Place Ginette Hamelin,Bercy,48.837853,2.382064
15132,Bargue -  Dutot,Necker,48.837884,2.308876
16103,Traktir - Foch,Chaillot,48.8727553346136,2.29154978024871
2003,Saint-Denis - Réaumur,Bonne-Nouvelle,48.8661116315789,2.35077906755076
1102,Française - Etienne Marcel,Halles,48.8640533046538,2.34758701175451
14023,Adolphe Pinard - Victor Hugo,Plaisance,48.8236825874564,2.30778437107801
4017,Place de l'Hôtel de Ville,Saint-Merri,48.8573314,2.351458
14133,Froidevaux - Boulard,Montparnasse,48.8351473196254,2.32944119721651
2016,Aboukir - Alexandrie,Bonne-Nouvelle,48.8686834444447,2.35020432694749
13028,Gouthière - Poterne des Peupliers,Maison-Blanche,48.820507,2.351342
19119,Edouard Pailleron - Bouret,Combat,48.8805976940705,2.37694948911667
14005,René Coty - Place Denfert-Rochereau,Petit-Montrouge,48.8330564773164,2.33294114470482
18108,Evangile - Aubervilliers,La Chapelle,48.8950395418708,2.3687969148159
13055,M.- A. Lagroua Weill-Hallé -  F. Dolto,Gare,48.8285952838574,2.38022060626611
19123,Metz - Marne,Pont-de-Flandre,48.891163,2.3865705
5001,Harpe - Saint-Germain,Sorbonne,48.8515188150169,2.34367031604052
8009,Gare Saint-Lazare - Isly,Madeleine,48.8747776776213,2.32651580478465
19015,Thionville - Ourcq,Villette,48.8891761374379,2.38336533308029
14008,Mouton Duvernet - Général Leclerc,Petit-Montrouge,48.8316325182926,2.32931211590767
9010,Rochechouart lamartine,Rochechouart,48.876719895109,2.34439302185395
8002,Gare Saint-Lazare - Cour du Havre,Europe,48.8756744008513,2.32655983418226
6018,Michelet - Assas,Odéon,48.8427415028319,2.33502119779587
19037,Belleville - Porte des Lilas,Saint-Fargeau,48.8766039189276,2.40476969112948
17124,Porte de Saint-Ouen - Henri Huchard,Grandes-Carrières,48.8987083663651,2.32953608036041
1002,Victoria - Place du Chatelet,Saint-Germain-l'Auxerrois,48.8579925915269,2.34691679477692
20027,Porte de Ménilmontant,Saint-Fargeau,48.8691543609174,2.40932246879487
15108,Lourmel - Marie Skobtsov,Javel,48.844974,2.287283
18023,Ordener - Poissonniers,Clignancourt,48.8912138908447,2.35128866621987
9118,Faubourg Poissonniere - Delta,Saint-Vincent-de-Paul,48.8825558076268,2.34974820166826
7113,Berges de Seine - Musée d'Orsay,Gros-Caillou,48.8627885936562,2.30645935982466
13019,Fernand Braudel - Vincent Auriol,Gare,48.8363785231815,2.3723404482007
15009,Suffren - Pérignon,Necker,48.8471756149277,2.30705214759679
13022,Butte aux Cailles - Esperance,Maison-Blanche,48.8275877419095,2.34921511262655
16031,Vignes - Boulainvilliers,Muette,48.8563994839505,2.27524045854807
15019,Paul Barruel - Vaugirard,Saint-Lambert,48.8401491854624,2.30443328619003
15131,Charles Lecocq - Lecourbe,Saint-Lambert,48.84044,2.294867
11109,Pierre Levée - Fontaine Timbaud,Folie-Méricourt,48.8663272337431,2.37111635506153
11032,Jean-Pierre Timbaud - Vaucouleurs,Folie-Méricourt,48.867937,2.377885
13126,Place Nationale - Château-des-Rentiers,Gare,48.829566,2.365053
18026,Ruisseau - Ordener,Grandes-Carrières,48.8929946256802,2.34014488756657
20001,Place de la Nation - Charonne,Charonne,48.8483646677768,2.39976238598127
7021,Bosquet - Saint-Dominique,Gros-Caillou,48.8586517095265,2.30371658023458
2002,Etienne Marcel - Montorgueil,Halles,48.864505672592,2.34619595110416
4005,Quai des Célestins - Henri IV,Arsenal,48.8512971,2.3624535
19130,Place Paul Delouvrier,Pont-de-Flandre,48.8920258127504,2.38515939563513
1015,Place André Malraux,Palais-Royal,48.8639251587267,2.33562268316746
12022,Sahel - Général Michel Bizot,Bel-Air,48.8408729647934,2.40444447845221
15027,Duhamel - André Gide,Necker,48.8365662244334,2.31270712109741
13008,Place d'Italie - Soeur Rosalie,Croulebarbe,48.8319085203939,2.3546943448098
6015,André Mazet - Saint-André des Arts,Monnaie,48.8537558105743,2.33909580856562
18111,Félix Ziem - Armand Gauthier,Grandes-Carrières,48.8894963048682,2.3333936588044
9106,Boudreau - Auber,Chaussée-d'Antin,48.87219,2.329423
17040,Pereire - Ternes,Ternes,48.8797395483074,2.28801213204861
5020,Institut du Monde Arabe - Saint-Germain,Saint-Victor,48.8490632995014,2.35580865293741
12111,Claude Decaen - Cannebière,Picpus,48.8376141703795,2.3972537821957
6006,Notre-Dame-des-Champs - Stanislas,Notre-Dame-des-Champs,48.8447992885877,2.32933775588718
18003,Cimetière de Montmartre,Grandes-Carrières,48.8864724661419,2.33289018273354
12114,Victor Hugo - Jeanne Jugan,Bel-Air,48.8439490640318,2.41508139483442
18031,Place Albert Kahn,Clignancourt,48.8957969797804,2.34558558413486
14012,Sibelle - Alésia,Parc-de-Montsouris,48.8267017585392,2.33849834650755
5124,Ulm - Louis Thuillier,Val-de-Grâce,48.842647,2.344593
17031,Place de la Porte de Champerret,Ternes,48.8856174162832,2.29078141127921
1119,Cossonnerie - Sébastopol,Halles,48.861326659084,2.34941963106394
14110,Abbé Carton - Plantes,Plaisance,48.8276738231659,2.32091814279556
11024,Mairie du 11ème,Roquette,48.858925,2.3789759
5006,Saint-Jacques - Soufflot,Sorbonne,48.8465255,2.343099
8035,Bienfaisance - Place de Narvik,Europe,48.8766016345908,2.31297712773085
10011,Bourse du Travail,Porte-Saint-Martin,48.8689766388257,2.3623438552022
20026,Gambetta - Hôpital Tenon,Père-Lachaise,48.8679251540267,2.40097662354654
15010,Square Cambronne,Necker,48.8475665452597,2.30256915092468
20119,Square des Saint-Simoniens,Saint-Fargeau,48.8701796,2.3967273
10001,René Boulanger - Lancry,Porte-Saint-Martin,48.8685433,2.3600032
10005,Petites Ecuries - Faubourg Poissonnière,Porte-Saint-Denis,48.8739721723737,2.34838875750478
11104,Charonne - Robert et Sonia Delauney,Sainte-Marguerite,48.8559075559689,2.3925706744194
5026,Pascal - Claude Bernard,Jardin-des-Plantes,48.8390619521597,2.34997820109129
9104,Caumartin - Provence,Chaussée-d'Antin,48.8744227734266,2.32846856117248
15028,Grenelle - Dr Finlay,Grenelle,48.851315406716,2.29195028543472
13016,Primo Levi - Frigos,Gare,48.8309484484602,2.37965351592796
18134,Ney - Porte de Clignancourt,Clignancourt,48.8978867,2.3458001
10027,Dunkerque - Alsace,Saint-Vincent-de-Paul,48.879355,2.358379
11116,Faubourg St-Antoine - Place de la Nation,Sainte-Marguerite,48.8487659,2.3940436
7018,Ségur - d'Estrées,Ecole-Militaire,48.8514199789826,2.30970449745655
7007,Musée d'Orsay,Saint-Thomas-d'Aquin,48.8597261579087,2.32586044818163
6017,Sénat - Condé,Odéon,48.8495422778846,2.33793944120407
8056,Beaujon - Wagram,Faubourg-du-Roule,48.8753524559851,2.29644164443016
14124,David Weill - Parc Montsouris,Parc-de-Montsouris,48.8210923742561,2.33372569084167
12108,Bercy,Bercy,48.8399669149945,2.37886257469654
20017,Saint-Blaise - Mouraud,Charonne,48.8569617759782,2.40869477391243
17125,Marie-Georges Picquart - Pereire,Batignolles,48.8886366934971,2.31117065995932
8104,Chateaubriand - Friedland,Faubourg-du-Roule,48.8740144756374,2.29991625786582
8015,Roquépine - Malesherbes,Madeleine,48.8734507339081,2.32040449976921
11042,Grand Prieuré - Crussol,Folie-Méricourt,48.8646606279352,2.36922655318291
19125,Place de l'Édit de Nantes,Villette,48.88879,2.3785
8004,Malesherbes - Place de la Madeleine,Madeleine,48.8704060284825,2.32324350980799
11103,Pelée - Alphonse Baudin,Saint-Ambroise,48.8600265,2.3710541
7015,Varenne,Invalides,48.8572026618033,2.31527712196112
10017,Gare de l'Est - Fidélité,Porte-Saint-Denis,48.874575,2.356796
5107,Pontoise - La Tournelle,Saint-Victor,48.8504580091884,2.35245427549219
8055,Courcelles - Place des Ternes,Faubourg-du-Roule,48.8781999289231,2.2992860188665
16101,Malakoff - Place de la Porte Maillot,Porte-Dauphine,48.8767334966375,2.28345774114132
19034,Porte de Pantin - Petits Ponts,Pont-de-Flandre,48.89041086237,2.39819392561913
5002,Sommerard - Saint-Jacques,Sorbonne,48.8503104329245,2.34501583529859
12043,Daumesnil - Hébrard,Bercy,48.8429,2.38474
18005,Tardieu - Chappe,Clignancourt,48.8841467597819,2.34184540808201
19108,Gaston Tessier - Rosa Parks RER,Pont-de-Flandre,48.8963765,2.3743692
13102,Pitié-Salpêtrière,Salpêtrière,48.8372080623418,2.36468642950058
18007,Goutte d'or - Barbès,Goutte-d'Or,48.885124323627,2.3496962338686
19009,Cité des Sciences et de l'Industrie,Pont-de-Flandre,48.896595711789,2.38459914922714
17111,Lemercier - Cardinet,Batignolles,48.8900971688518,2.3173776268959
18033,Belliard - Damrémont,Grandes-Carrières,48.8966923877784,2.33802345038817
15071,Suffren - Champ de Mars,Grenelle,48.8547194,2.2952168
16043,Place de Passy,Muette,48.857802917112,2.2775005469422
15102,Square Bela Bartok,Grenelle,48.851201568304,2.28465367108583
15040,Saint-Amand - Labrouste,Saint-Lambert,48.8340972748323,2.3087677359581
2108,Vivienne - Montmartre,Vivienne,48.8713475973833,2.34145883470774
4104,Sebastopol - Rambuteau,Saint-Merri,48.8618180926699,2.3501381278038
4019,Cloître Saint-Merri - Renard,Saint-Merri,48.8588354488982,2.35182791948318
13021,Boussingault - Tolbiac,Maison-Blanche,48.8260351660585,2.34217680800433
2112,Bibliothèque Nationale,Vivienne,48.8682889935149,2.33808930963278
12150,Bastille - Quai de la Rapée,Quinze-Vingts,48.8468241085504,2.36693646758795
15127,Place Charles Michels,Javel,48.846401,2.28502
10153,Gare du Nord - Denain,Saint-Vincent-de-Paul,48.8795957876081,2.35447257757187
6002,Saint-Benoît - Jacob,Saint-Germain-des-Prés,48.8554513601394,2.33347222208977
4111,Hôtel de Ville - Pont d'Arcole,Saint-Merri,48.8558764518399,2.35089216381311
16019,Porte de la Muette,Porte-Dauphine,48.8630231784118,2.26871881701574
18139,Poissonniers - Championnet,Goutte-d'Or,48.8954329973394,2.35301781445742
20009,Docteurs Déjérine - Pte de Montreuil,Charonne,48.853984481337,2.41208288897222
12036,Reuilly - Place Felix Eboue,Picpus,48.8403027449996,2.39463039871545
8103,Artois - Berri,Faubourg-du-Roule,48.8739352124082,2.30642583221197
13033,Porte d'Italie,Maison-Blanche,48.817161987719,2.36023630946875
15128,Cadix - Hameau,Saint-Lambert,48.8340107632249,2.28951618075371
11038,Temple - Charlot,Folie-Méricourt,48.8657093437958,2.36527372507235
15103,Cauchy - Cévennes,Javel,48.8433725710224,2.27513283491135
1007,Turbigo - Française,Halles,48.8635885811145,2.34777946025133
18006,Square Louise Michel,Clignancourt,48.8846873545091,2.34413869678974
19201,Petit - Georges Thill,Amérique,48.8860313199917,2.38957531750202
18041,Rochechouart - Martyrs,Clignancourt,48.8821937795717,2.34054956585169
12163,Hippodrome Paris-Vincennes,Picpus,48.8212885411546,2.45308431645118
1017,Saint-Honoré - 29 juillet,Place-Vendôme,48.8655711428242,2.33056741757715
20015,Bagnolet - Orteaux,Charonne,48.8570864102724,2.39841252565384
16010,Belles Feuilles - Place de Mexico,Porte-Dauphine,48.8658047464738,2.28292062878609
15006,Cherche-Midi - Hôpital Necker,Necker,48.8446106330996,2.31791406869888
13116,Place du Docteur Yersin,Gare,48.8201049499198,2.37255837768316
13052,Leredde - Tolbiac,Gare,48.8288762966399,2.37443827092648
8040,Pierre Charron - Champs-Elysées,Champs-Elysées,48.8701033598642,2.30435013771057
11001,Richard Lenoir - Place de la Bastille,Roquette,48.8538327,2.3697222
17036,Place Tristan Bernard,Ternes,48.8791964,2.2915403
20008,Pyrénées - Avron,Charonne,48.853246898212,2.40587104452954
20024,Gambetta - Père Lachaise,Père-Lachaise,48.8642956961659,2.39822866728204
17110,Legendre - Nollet,Batignolles,48.8877421867542,2.32029307988137
13017,Nationale - Vincent Auriol,Gare,48.8325270839729,2.36235441039212
19046,Porte de Pantin,Amérique,48.8891997255772,2.39501819014549
10031,Louis Blanc - Aqueduc,Saint-Vincent-de-Paul,48.8820301825995,2.36356157809496
15113,Arsonval - Falguière,Necker,48.8404004036545,2.31311786729747
13023,Bobillot - Moulin des Prés,Maison-Blanche,48.8286573462031,2.35302064631696
13054,Pau Casals - Neuve Tolbiac,Gare,48.8311602,2.3774395
2020,Danielle Casanova - Opéra,Gaillon,48.8676432422973,2.33338940888643
20048,Bagnolet - Place Saint-Blaise,Charonne,48.85973,2.40334
6025,Assas - Rennes,Notre-Dame-des-Champs,48.8492084999386,2.32851454623001
20014,Charonne - Alexandre Dumas,Charonne,48.8560774150561,2.39486932754517
7010,Constantine - Université,Invalides,48.8606804737383,2.31484819558422
12017,Saint-Mandé - Docteur Arnold Netter,Bel-Air,48.8446258576967,2.40494638681412
15047,Morillons - Dantzig,Saint-Lambert,48.8331014995393,2.29938000440598
17010,Jonquière - Docteur Paul Brousse,Epinettes,48.894799816684,2.31870521217322
17032,Jean Oestreicher - Porte de Champerret,Ternes,48.8865558006598,2.28864043951035
8016,Square Louis XVI,Madeleine,48.8732044010289,2.32365883074314
18024,Clignancourt - Ordener,Clignancourt,48.8914577261538,2.34863647806049
17043,Belidor - Gouvion-Saint-Cyr,Ternes,48.8802215405202,2.28546805679798
18011,Pajol - Place Herbert,La Chapelle,48.8927825,2.3635598
19103,Manin - Carrières d'Amérique,Amérique,48.8846721420946,2.39196985960007
15105,Fédération - Suffren,Grenelle,48.8528281534424,2.29787763208151
9116,Victoire - Chaussée d'Antin,Chaussée-d'Antin,48.8750657910044,2.33167380094528
20134,Lieutenant Chauré - Etienne Marey,Saint-Fargeau,48.8674619540844,2.40597099065781
13041,Porte d'Ivry,Gare,48.8217687475965,2.36887067556381
7112,Quai d'Orsay - Invalides,Invalides,48.8630969001406,2.3169896210204
13049,Vincent Auriol - Louise Weiss,Gare,48.8340019355015,2.37038880586624
12024,Gare de Bercy,Bercy,48.8397945739057,2.3826066032052
17050,Batignolles - Abel Truchet,Batignolles,48.8831039045822,2.32383474908838
20021,Indre - Prairies,Père-Lachaise,48.8625439850678,2.40329045802355
15032,Félix Faure - Lourmel,Javel,48.8386890170952,2.28180818259716
20116,Haies - Réunion,Charonne,48.8538689676649,2.40242616223891
12004,Traversière - Ledru-Rollin,Quinze-Vingts,48.8507358241288,2.37587011170624
20019,Place du Maquis du Vercors,Saint-Fargeau,48.8773215794936,2.40837827324867
18042,Place Pigalle,Grandes-Carrières,48.8827555,2.3361566
15063,Convention - Saint-Charles,Javel,48.843156111116,2.28310905396938
11003,Keller - La Roquette,Roquette,48.8555508,2.3752778
11107,Faidherbe - Dahomey,Sainte-Marguerite,48.8513583297718,2.38382313479543
11110,Roquette - Folie Regnault,Roquette,48.8592469591555,2.3865536235787
12127,Tremblay - Lac des Minimes,Picpus,48.8341312614944,2.4547516554594
13035,Choisy - Tolbiac,Gare,48.8259115558702,2.36023932695389
9036,Athènes - Clichy,Saint-Georges,48.878113787876,2.32956021945824
20002,Square de la rue Pixérécourt,Saint-Fargeau,48.8736824,2.3960278
5029,Georges Bernanos - Port Royal,Val-de-Grâce,48.8401452134738,2.33735740184784
4003,Quai aux Fleurs - Pont Saint-Louis,Notre-Dame,48.8529159562093,2.35219571739435
15062,Convention - Lourmel,Javel,48.8420550416557,2.28599108755589
16002,Pergolèse - Malakoff,Chaillot,48.8752108877923,2.28427816182375
11017,Charonne - Bureau,Sainte-Marguerite,48.854176,2.396093
15011,Cambronne - Villa Croix Nivert,Necker,48.8458475613659,2.30175744742155
5024,Place Monge,Jardin-des-Plantes,48.8427618030513,2.35240794718266
9011,Geoffroy - Marie,Faubourg-Montmartre,48.8737819405933,2.34451387633789
18039,Jardins d'Eole,La Chapelle,48.8869703,2.3668488
14031,Didot - Place de Moro-Giafferi,Plaisance,48.8337,2.3215
14026,Plantes - Moulin Vert,Plaisance,48.8300575530563,2.3232302069664
10032,Claude Vellefaux - Hôpital Saint-Louis,Hôpital-Saint-Louis,48.8728591390031,2.37007170698515
12156,Niger - Soult,Bel-Air,48.8436990636908,2.4103612372205
12002,Lacuée - Lyon,Quinze-Vingts,48.8492684819584,2.37045854330063
1023,Saint-Honoré - Musée du Louvre,Palais-Royal,48.8634431328479,2.33487818464051
19114,Manin - Secrétan,Combat,48.8791665,2.3787959
8018,Saint-Augustin,Europe,48.8762009747008,2.31978625059128
9025,Taitbout - Châteaudun,Chaussée-d'Antin,48.876383969379,2.33535667793353
12008,Hector Malot - Daumesnil,Quinze-Vingts,48.8469355299176,2.37708762288094
17006,Guy Môquet - Compoint,Epinettes,48.8921355904487,2.32321947813034
20033,Etienne Dolet - Place Maurice Chevalier,Belleville,48.8679830335937,2.3851405311143
19007,Flandre - Ourcq,Pont-de-Flandre,48.8926015918902,2.37909156829119
17026,Jouffroy d'Abbans - Wagram,Plaine de Monceaux,48.8819732983516,2.30113215744495
11037,Faubourg Du Temple - Republique,Folie-Méricourt,48.8678724847488,2.36489821580723
5016,Thouin - Cardinal Lemoine,Saint-Victor,48.8450471666151,2.34946478512735
15068,Général Martial Valin - Pont du Garigliano,Javel,48.8382309426914,2.27050602436066
20035,Pyrénées - Ménilmontant,Père-Lachaise,48.8693268535238,2.39508457481861
10115,Granges aux Belles,Hôpital-Saint-Louis,48.8761373390584,2.3680844979417
10029,Dunkerque - Rocroy,Saint-Vincent-de-Paul,48.880726,2.351464
10161,Gare de l'Est - Faubourg-Saint-Martin,Hôpital-Saint-Louis,48.8756426474772,2.35945880413055
19043,Delphine Seyrig - Général Leclerc,Pont-de-Flandre,48.8939239630579,2.39790290594101
10016,Récollets - Square Villemin,Porte-Saint-Martin,48.8750346558839,2.35980123859793
8010,Liège - Moscou,Europe,48.8795431,2.3264628
8054,Bertie Albrecht - Hoche,Faubourg-du-Roule,48.8761403982639,2.3013031383076
11030,Oberkampf - République,Folie-Méricourt,48.8654533,2.3760261
18012,Stephenson - Doudeauville,Goutte-d'Or,48.8885370489448,2.35616102814674
18141,Clignancourt - Sofia,Clignancourt,48.8850846482319,2.34713110533174
18141,Clignancourt - Sofia,Clignancourt,48.885103820116,2.3472648113966
12034,Pirogues de Bercy - Libourne,Bercy,48.832308,2.38637
8033,Commandant Rivière,Faubourg-du-Roule,48.872933,2.309796
14019,Sarrette - Général Leclerc,Petit-Montrouge,48.8250308529253,2.32641286939819
5116,Place Valhubert,Jardin-des-Plantes,48.8441825773152,2.36403666436672
14018,Porte d'Orléans,Petit-Montrouge,48.8227639,2.3249313
14122,Colonel Monteil - Brune,Plaisance,48.8265029331101,2.30927479982717
17122,Bridaine - Lamandé,Batignolles,48.8862074,2.3206239
19040,Belleville - Télégraphe,Amérique,48.8756045,2.3995549
17121,Square des Epinettes,Epinettes,48.8938390978139,2.32595399022102
14028,Alésia - Suisses,Plaisance,48.8316825207176,2.31498692260038
13046,Eugène Oudiné - Dessous Des Berges,Gare,48.8256423,2.3750226
8038,François 1er - Montaigne,Champs-Elysées,48.8668876499781,2.30667557572067
6014,Pont de Lodi - Dauphine,Monnaie,48.8552968986033,2.33994730756525
9012,Rougemont - Poissonnière,Faubourg-Montmartre,48.8716115693548,2.345873080194
15061,Square Desnouettes,Saint-Lambert,48.8347683793419,2.28414229739467
2014,Daunou - Louis le Grand,Gaillon,48.869113,2.332515
16041,Versailles - Claude Terrasse,Auteuil,48.8402193380741,2.26383419115296
9113,Bleue - Trévise,Faubourg-Montmartre,48.8757890656457,2.34728962182999
11048,Place Mireille Havet,Sainte-Marguerite,48.850533,2.383756
14127,Odessa - Départ,Montparnasse,48.8428855900808,2.32442814856768
17104,Jardin Marguerite Long,Ternes,48.8816985773914,2.28365756571293
14016,René Coty - Parc Montsouris,Parc-de-Montsouris,48.8247913449803,2.3361249268055
20047,Cours de Vincennes - Davout,Charonne,48.8472380299656,2.4107042336225
15060,Place de la Montagne du Goulet,Javel,48.8443415,2.2773844
8008,Joseph Sansboeuf - Saint Lazare,Europe,48.8753156306527,2.3229019716382
15123,Commerce - Letellier,Grenelle,48.8479766037361,2.29662451965988
9101,Cadet - La Fayette,Faubourg-Montmartre,48.8756016326724,2.34357040375471
7017,La Motte-Picquet - La Tour Maubourg,Gros-Caillou,48.8572316,2.3094136
4021,Centre Georges Pompidou,Saint-Merri,48.861419,2.352581
14011,Place des Droits de l'Enfant,Petit-Montrouge,48.8274804,2.3319217
8031,Jean Mermoz - Champs-Elysées,Faubourg-du-Roule,48.8696898568517,2.31073245406151
16012,Flandrin - Longchamp,Porte-Dauphine,48.8687784917848,2.27435453917683
12019,Gare de Reuilly - Picpus,Picpus,48.8426735411679,2.39729437977076
18140,Porte de Clignancourt - Ney,Clignancourt,48.8996411239871,2.34432142227888
8110,Gare Saint-Lazare - Stockholm,Europe,48.8771273166677,2.32241716235876
3001,Beaumarchais - Saint-Gilles,Archives,48.8580378,2.3679352
3005,Sainte-Elisabeth - Turbigo,Arts-et-Métiers,48.8661033743104,2.35964924097061
10201,Magenta - Chabrol,Saint-Vincent-de-Paul,48.876495350882,2.35609900206327
12016,Saint-Mande - Picpus,Picpus,48.8451277282777,2.40156862964819
13015,Chevaleret - Louise Weiss,Gare,48.8325865133506,2.37121138811995
15053,Lecourbe - Convention,Saint-Lambert,48.839233192419,2.29151979088783
20032,Square des Amandiers,Père-Lachaise,48.8661563066805,2.38913241773844
16033,Marché d'Auteuil,Auteuil,48.8484276136739,2.26525382116
19014,Lorraine - Jean Jaurès,Villette,48.8863865,2.3825772
15014,Volontaires - Vaugirard,Necker,48.84132050184,2.30808901725357
6009,Guynemer - Jardin du Luxembourg,Odéon,48.8466127,2.3325478
10013,Alibert - Jemmapes,Porte-Saint-Martin,48.8710440519842,2.36610446198777
17025,Chazelles - Courcelles,Plaine de Monceaux,48.879406604954,2.3034455627203
8050,Boétie - Ponthieu,Faubourg-du-Roule,48.8714172843548,2.30767875909805
14002,Edgar Quinet - Raspail,Montparnasse,48.8394026667384,2.32971478253603
14020,Cimetière de Montrouge,Petit-Montrouge,48.822009,2.322188699
10111,Jemmapes - Grange aux Belles,Porte-Saint-Martin,48.873462,2.364035
2111,Chabanais - Petits Champs,Vivienne,48.867281,2.336729
5123,Saint-Germain - Thenard,Sorbonne,48.850571,2.3471015
16124,Route de Sèvres - Porte de Bagatelle,Muette,48.8752598413249,2.24941581487656
14001,Edgar Quinet - Gaité,Montparnasse,48.8411609289663,2.32459545135498
20136,Henri Chevreau - Couronnes,Belleville,48.8703320531293,2.38877769559622
11101,Charles Delescluze,Sainte-Marguerite,48.8524220084889,2.38063249737024
14130,Jonquoy - Didot,Plaisance,48.8289045482395,2.31648076325655
13043,Dunois - Clisson,Gare,48.832294,2.3674523
11020,Belfort - Voltaire,Roquette,48.8563358,2.3829901
9023,Laffitte - Italiens,Chaussée-d'Antin,48.8718157373963,2.33720154784508
15002,Maine - Antoine Bourdelle,Necker,48.843085317466,2.32026394678474
15058,Place du Moulin de Javel,Javel,48.8402167092204,2.27160606533289
20030,Ménilmontant - Père Lachaise,Saint-Ambroise,48.8632872915023,2.38699402660131
4101,Bastille - Beaumarchais,Arsenal,48.8538334638518,2.36857026815414
10163,Gare du Nord - Demarquay,Saint-Vincent-de-Paul,48.881154,2.358411
8105,François 1er - Lincoln,Champs-Elysées,48.8695179793442,2.30242621884156
15133,Sellier - Saint-Cloud,Saint-Lambert,48.836686868675,2.29292843633312
17005,Brochant - Clichy,Epinettes,48.8903299891204,2.31973055992978
11012,Montreuil - Voltaire,Sainte-Marguerite,48.8505070118419,2.39307555827447
16014,Eylau - Trocadéro,Porte-Dauphine,48.8633541223707,2.28642091155052
15052,Convention - Vaugirard,Saint-Lambert,48.8376768223316,2.29558692602025
13128,Quai de la Gare - Pont de Bercy,Gare,48.8373078797205,2.37408612605985
14010,Jean Moulin - Place Victor et Hélène Basch,Petit-Montrouge,48.8276491024099,2.32619673013687
18030,Joseph Dijon - Ornano,Clignancourt,48.8937445335152,2.34766781330109
4010,Saint-Antoine Sévigné,Saint-Gervais,48.8550222,2.3612322
20044,Davout - Volga,Charonne,48.8529196799573,2.41052290977911
15001,Gare Montparnasse - Arrivée,Necker,48.8438279943149,2.3225811123848
10038,Place du Colonel Fabien,Hôpital-Saint-Louis,48.8775683208602,2.36987918615341
14135,Jourdan - Cité Universitaire,Parc-de-Montsouris,48.8198973431567,2.33970079641244
13125,Gare d'Austerlitz - Pont Charles de Gaulle,Salpêtrière,48.8423198301093,2.36703000962734
2012,Choiseul - Quatre Septembre,Gaillon,48.8699355331869,2.33599752187729
4015,Mairie du 4ème,Saint-Gervais,48.8559499104965,2.35638231039047
3007,Archives - Pastourelle,Sainte-Avoie,48.8623615,2.3595041
2022,Saint-Fiacre - Poissonière,Mail,48.870828911558,2.34592135995626
5027,Gobelins - Port-Royal,Jardin-des-Plantes,48.8371359002628,2.35152013599873
12119,Dom-Pérignon - Gravelle,Picpus,48.8254815744346,2.40988031029701
10003,Hauteville - Bonne Nouvelle,Porte-Saint-Denis,48.8707743602404,2.34964963683273
17117,Pereire - Saussure,Batignolles,48.8882568,2.3102882
11028,Guillaume Bertrand - République,Saint-Ambroise,48.8638251743415,2.38090637715497
6108,Saint-Romain - Cherche-Midi,Notre-Dame-des-Champs,48.8470815908195,2.32137478888035
13101,Croulebarde - Corvisart,Croulebarbe,48.8309816593169,2.3481646925211
19105,Ambroise Rendu - Porte Brunet,Amérique,48.883667,2.395733
7014,Saint-François-Xavier,Ecole-Militaire,48.8515448476899,2.31461495161057
10025,Jemmapes - Ecluses Saint-Martin,Hôpital-Saint-Louis,48.8774851918673,2.36600674688816
17012,Mairie du 17ème,Batignolles,48.8841618487157,2.32207943110372
5018,Mutualité,Saint-Victor,48.8482255727241,2.35028732568026
11047,Amelot - Saint-Sébastien,Saint-Ambroise,48.8611421627609,2.36779961810773
5032,Panthéon - Valette,Sorbonne,48.8470205716522,2.34649826196711
14003,Schoelcher - Raspail,Montparnasse,48.8368173352684,2.33127940804115
15106,Grenelle - Violet,Grenelle,48.8499303551216,2.29461204260588
15046,Parc Georges Brassens - Brancion,Saint-Lambert,48.8322782926976,2.30225700885057
17028,Reims - Raymond Pitet,Plaine de Monceaux,48.8888,2.296319
16111,Faustin Hélie - Desbordes-Valmore,Muette,48.859403,2.276522
12115,Porte de Vincennes,Bel-Air,48.846454,2.415514
11040,Temple - Jean-Pierre Timbaud,Folie-Méricourt,48.8644659720102,2.3660597205162
12106,Gare de Lyon - Roland Barthes,Quinze-Vingts,48.8439572949406,2.37908821552992
15126,Ernest Renan - Parc des Expositions,Saint-Lambert,48.8308975701041,2.2853584215045
17017,Gare de Pont-Cardinet,Batignolles,48.8871390147531,2.31449414399425
6103,Mézières - Rennes,Notre-Dame-des-Champs,48.850234593217,2.33038198202848
19109,Tanger - Place du Maroc,Villette,48.8862524447104,2.36892968416214
18025,Mairie du 18ème,Clignancourt,48.8929392969376,2.34455108642578
18109,Pajol - Riquet,La Chapelle,48.8896002813454,2.36285347491503
18029,Emile Blemont - Poteau,Clignancourt,48.8943782,2.3415122
11010,Boulets - Faubourg Saint-Antoine,Sainte-Marguerite,48.8492592621152,2.3917546141943
9017,Lallier - Trudaine,Rochechouart,48.8810924661796,2.34082248061895
16112,Chernoviz - Raynouard,Muette,48.8569864146289,2.28217321814299
15003,Gare Montparnasse - Vaugirard,Necker,48.8418071798797,2.31951002690117
18001,Damrémont - Caulaincourt,Grandes-Carrières,48.8871450907874,2.33258809894323
5028,Censier - Jardin des Plantes,Jardin-des-Plantes,48.8410717816138,2.35547538846731
20117,Saint-Fargeau - Mortier,Saint-Fargeau,48.8726665612226,2.40791290998459
20007,Buzenval - Avron,Charonne,48.8516172049987,2.40151359730767
13109,Brillat-Savarin - Küss,Maison-Blanche,48.822203,2.350422
13106,Bobillot - Paulin Mery,Maison-Blanche,48.8298998417474,2.35433567667485
15064,Javel - André Citroën,Javel,48.846276485475,2.27863680571318
9027,Douai - Pierre Fontaine,Saint-Georges,48.8822910114809,2.33324121683836
14137,Maurice d'Ocagne - General Maudhuy,Plaisance,48.8241428252416,2.31587894260883
12028,Vivaldi - Antoine-Julien Hénard,Picpus,48.8419236632766,2.38972897946738
14032,Mairie du 14ème,Petit-Montrouge,48.8325457812299,2.32549231499434
13123,Bibliothèque Nationale de France,Gare,48.8351705007025,2.37583015186147
4006,Bourdon - Pont Morland,Arsenal,48.8478103,2.3659356
12037,Reuilly - Daumesnil,Picpus,48.8395385,2.3972516
9009,Square Montholon,Rochechouart,48.876620377545,2.34576411545277
18034,Leibniz - Jean Dollfus,Grandes-Carrières,48.896328348516,2.33339042383468
10034,Louis Blanc - La Chapelle,Saint-Vincent-de-Paul,48.8840089645143,2.35993355512619
19002,Centquatre,Villette,48.8893335384554,2.37078543752432
20006,Pyrénées - Plaine,Charonne,48.8502670245801,2.40628212690353
12112,Charenton - Jardiniers,Picpus,48.8338217729227,2.39469266410605
3011,Turbigo - Réaumur,Arts-et-Métiers,48.8655740475305,2.35641986131668
2004,Square Pierre Lazareff,Bonne-Nouvelle,48.8671417207458,2.34839335083961
1025,Oratoire - Rivoli,Halles,48.8613427608893,2.34000474214554
12113,Cardinal Lavigerie,Picpus,48.8329341936998,2.40263674939916
1013,Place du Palais Royal,Palais-Royal,48.862430234764,2.33852013115178
20010,Sorbier - Gasnier-Guy,Père-Lachaise,48.8652176310112,2.39365965127945
19121,Belleville -  Pré Saint-Gervais,Amérique,48.8755659100731,2.39304609596729
19045,Macdonald - Césaria Evora,Pont-de-Flandre,48.89883,2.37933
19102,Rampal - Belleville,Combat,48.8730216015596,2.37991098314524
20011,Pyrénées - Dagorno,Charonne,48.8554257706951,2.40516431629658
19001,Crimée - Ourcq,Pont-de-Flandre,48.8941041403163,2.37294608846728
9020,Toudouze - Clauzel,Saint-Georges,48.8792959173351,2.33736008405685
7001,Invalides - Duroc,Ecole-Militaire,48.8477924732952,2.31619209051132
9002,Abbeville - Faubourg Poissonnière,Rochechouart,48.879223,2.349147
19003,Quai de la Seine,Villette,48.8844922384075,2.37039417028427
11023,Saint-Maur - Roquette,Roquette,48.8586887740629,2.38355399457147
17030,Pereire - Rennequin,Ternes,48.8836478288756,2.29524470865726
13014,Gare d'Austerlitz,Salpêtrière,48.842524,2.364044
12128,Pyramide - Ecole du Breuil,Picpus,48.8223797715395,2.45868712663651
15104,Hôpital Européen Georges Pompidou,Javel,48.8376953191634,2.27537423372269
13053,Chevaleret - Tolbiac,Gare,48.82941,2.375934
13050,Quai Panhard et Levassor,Gare,48.8283748280968,2.38427374580557
7005,Raspail - Bac,Saint-Thomas-d'Aquin,48.8556287211009,2.32566028833389
16034,Porte d'Auteuil,Auteuil,48.8479394142243,2.26083967834711
12030,Charenton - Wattignies,Picpus,48.8366757964063,2.39179585555563
16140,Longchamp - Suresnes,Muette,48.8630082862231,2.24082814272696
15029,Emeriau - Place de Brazzaville,Grenelle,48.850785261675,2.28715851902962
6016,Danton - Serpente,Monnaie,48.8522973625817,2.34141323715448
16123,Mahatma Gandhi,Porte-Dauphine,48.876356,2.264205
11006,Ledru-Rollin - Place du Père Chaillet,Roquette,48.8564337069437,2.37902058776143
15035,Place Etienne Pernet,Javel,48.8424345713378,2.29218196123838
15049,Porte de Versailles,Saint-Lambert,48.8321538173491,2.28714913129806
11043,Place Pasdeloup,Folie-Méricourt,48.8626542156313,2.36703250628442
14030,Pernety - Raymond Losserand,Plaisance,48.834254627953,2.31760933938696
10036,Aqueduc - Villette,Saint-Vincent-de-Paul,48.8838860638954,2.36719880331497
19041,Belleville - Pyrénées,Belleville,48.8741908,2.3860039
18137,Poissonniers - Nord,Clignancourt,48.8925112135207,2.35222287476063
7026,Place de Finlande,Invalides,48.8624083359666,2.31136243790388
11046,Place de la République - Voltaire,Folie-Méricourt,48.8668309689422,2.36548103392124
11044,Square du Bataclan,Saint-Ambroise,48.8633762,2.3711327
12153,Terroirs de France - Lheureux,Bercy,48.8321202707484,2.38861810415983
9016,Choron - Martyrs,Rochechouart,48.8778514435025,2.33967013657093
16024,Ranelagh - Maison de la Radio,Muette,48.8529360316948,2.28044964373112
17015,Place de Lévis,Plaine de Monceaux,48.8835468515333,2.31319338083267
16001,Portugais - Kléber,Chaillot,48.8712148,2.2937349
6012,Saint-Germain - Ciseaux,Saint-Germain-des-Prés,48.8533052775948,2.3344654618827
9034,Godot de Mauroy - Madeleine,Chaussée-d'Antin,48.869789,2.326347
3102,Bourg l'Abbé - Saint-Martin,Sainte-Avoie,48.8639333194926,2.35240627080202
17024,Villiers - Batignolles,Europe,48.8812525384612,2.31653843075037
3008,Perle - Vieille du Temple,Archives,48.8601346,2.3611206
8117,Place de la Madeleine - Royale,Madeleine,48.8692280526481,2.32442110776901
14103,Maine - Liancourt,Plaisance,48.835064363954,2.32373144997399
10006,Petites Ecuries - Faubourg Saint-Denis,Porte-Saint-Denis,48.8728712058983,2.35421508550644
9039,Chaussée d'Antin - Haussmann,Chaussée-d'Antin,48.87243,2.33359
1018,Alger - Rivoli,Place-Vendôme,48.8647735534954,2.32944939361279
15012,Cambronne - Mademoiselle,Necker,48.8432773300352,2.30230766886348
14027,Gergovie - Alésia,Plaisance,48.8308871745524,2.31888210120735
12102,Bercy - Traversiére,Quinze-Vingts,48.8461926425739,2.37038008868694
12122,Bois de Vincennes - Polygone,Picpus,48.8354449161742,2.43142108143656
5031,Lacépède - Linné,Saint-Victor,48.8437035476636,2.35465127974749
19027,Serrurier,Amérique,48.8804934032465,2.39806417375803
9035,Gare Saint-Lazare - Place de Budapest,Saint-Georges,48.877753,2.327339
18107,Chartres - La Charbonnière,Goutte-d'Or,48.8847601,2.3534657
20037,Gambetta - Saint Fargeau,Saint-Fargeau,48.871244610447,2.40390568971634
15109,Cevennes - Bergers,Javel,48.842407651304,2.28103771805763
18022,Marcadet - Barbès,Clignancourt,48.8904511209648,2.3490573929687
16038,Molitor - Chardon-Lagache,Auteuil,48.8452088018323,2.26568408310413
16040,Exelmans - Michel-Ange,Auteuil,48.8430948665186,2.25977708006691
9005,Square d'Anvers,Rochechouart,48.8826334843108,2.34488440621221
17007,Navier - Epinettes,Epinettes,48.8958778076916,2.32267767190933
10015,Lucien Sampaix - Récollets,Porte-Saint-Martin,48.8743303775605,2.3621229082346
9115,Milton - Manuel,Rochechouart,48.878249,2.341181
20016,Pyrénées - Maraîchers,Charonne,48.857140013953,2.40435093641281
10028,Gare du Nord - Dunkerque,Saint-Vincent-de-Paul,48.8804235084288,2.35276367515326
6032,Sabot - Rennes,Saint-Germain-des-Prés,48.8525751129484,2.33155276626348
7013,Duroc - Place de Breteuil,Ecole-Militaire,48.8474606411422,2.31261402368546
11019,Charonne - Philippe-Auguste,Sainte-Marguerite,48.8556031620258,2.39054639061998
3101,Porte Saint-Martin,Arts-et-Métiers,48.86860172113,2.35570102930069
4109,Mornay - Sully,Arsenal,48.8497039954842,2.3644607886672
13020,Paul Klee - Place Augusta Holmes,Salpêtrière,48.838946417408,2.3704235663953
6024,Saint-Germain-des-Prés,Saint-Germain-des-Prés,48.854185108152,2.33030587434769
9029,Saint-Lazare - Place d'Estienne d'Orves,Chaussée-d'Antin,48.8768345,2.3329067
13011,Hôpital - Campo-Formio,Salpêtrière,48.835405,2.358218
16011,Victor Hugo - La Pompe,Porte-Dauphine,48.8679522247086,2.28146318346262
17107,Berthier - Place Stuart Merril,Plaine de Monceaux,48.8859279223551,2.29334503412247
15311,Quai du Président Roosevelt - Pont Aval,Javel,48.8343883676388,2.26568207144737
17119,Toqueville - Cardinet,Plaine de Monceaux,48.8849018711071,2.31093931943178
12005,Crozatier - Faubourg Saint-Antoine,Quinze-Vingts,48.8504400134045,2.37890136621104
12155,Rottembourg - Général Michel Bizot,Bel-Air,48.8378782599255,2.40440525114536
15129,Hôpital Necker,Necker,48.8460434901185,2.31324501335621
6010,Chevreuse - Montparnasse,Notre-Dame-des-Champs,48.8417391612309,2.33155221673674
13005,Cordelières - Arago,Croulebarbe,48.8354807189661,2.34857246170222
10009,Mairie du 10ème,Porte-Saint-Martin,48.8720894499072,2.35758259892464
3012,Square Emile - Chautemps,Arts-et-Métiers,48.8674337242306,2.35363572835922
2005,Montmartre - Etienne Marcel,Mail,48.8650219458101,2.34506844014476
3006,Mairie du 3ème,Enfants-Rouges,48.8644617813914,2.36176282167435
3002,Saint-Gilles - Turenne,Archives,48.8581589567786,2.36471499209919
2109,Réaumur - Montmartre,Mail,48.8682309997589,2.34382603388757
10166,Strasbourg - Saint-Denis,Porte-Saint-Denis,48.8696016424335,2.35429085791111
15041,Franquet - Labrouste,Saint-Lambert,48.8328770501143,2.30676278471947
18010,Riquet - Marx Dormoy,La Chapelle,48.8902100370203,2.36017562448978
13120,Pierre Joseph Desault,Gare,48.8211023080037,2.37877540290356
20106,Mairie du 20ème,Père-Lachaise,48.8653023242754,2.39906698465347
18018,Carpeaux - Place Jacques Froment,Grandes-Carrières,48.8906542,2.3309428
16022,Jean Bologne - Passy,Muette,48.8575668897845,2.28002739530677
